Name,Listing_type,Location,Rating,Host,Beds,DiscountedPrice,OriginalPrice,Latitude,Longitude,State,Country,ZipCodes,Codes
The Barn,Entire chalet,Sevierville,8.7,Fabulous,2,0,361,35.8667112,-83.5620518,Tennessee,United States,37862,us
Crown Point Resort,2 entire apartment,Horseshoe Bend,9.2,Superb,2,0,238,36.2200685,-91.7474413,Arkansas,United States,72512,us
Fall River cozy apartment,Entire apartment,Fall River,7.9,Good,2,0,320,41.7010642,-71.1546367,Massachusetts,United States,02722,us
Renzzi Wynwood Apartments,Entire apartment,Miami,8.8,Fabulous,2,0,214,25.7741728,-80.19362,Florida,United States,33128,us
Cozy Getaway at Lake O' the Pines,Entire holiday home,Ore City,9.5,Exceptional,2,0,388,32.8001354,-94.7207634,Texas,United States,75683,us
Moon River Suites #5,Entire holiday home,North Bend,9.6,Exceptional,4,0,266,47.4957757,-121.784889,Washington,United States,98045,us
"Rockaway Oceanview Retreat-Oceanviews,Steps to the beach & Downtown Rockaway, WiFi",Entire holiday home,Rockaway Beach,9.3,Superb,5,0,319,45.613598,-123.943147,Oregon,United States,97136,us
VHC Modern Apartments,Entire apartment,"South Beach, Miami Beach",8.1,Very good,4,0,343,25.7744291,-80.1332415,Florida,United States,33139,us
Dream 2 bedroom house with Canal View and Yard,Entire holiday home,North Miami,9.3,Superb,3,0,214,25.8900949,-80.1867138,Florida,United States,33161,us
Lake Hartwell Rental w/Dock,Entire holiday home,Fair Play,9.7,Exceptional,3,0,171,37.6300394,-93.5732585,Missouri,United States,65649,us
"Secluded Oasis w Hot Tub, Screened-in Porch, WiFi!",Entire vill,Berkeley Springs,8.7,Fabulous,2,0,0,39.6267975,-78.2279514,West Virginia,United States,25411,us
Zion Wildflower,2 entire bungalow,Virgin,9.2,Superb,2,0,304,37.201902,-113.1878542,Utah,United States,84779,us
Fairway Forest,2 private suite,Sapphire,8.4,Very good,2,0,0,41.0849899,29.005998304859514,,Türkiye,34415,tr
Mountainside Villas at Massanutten by TripForth,Entire holiday home,McGaheysville,8.6,Fabulous,5,0,501,38.3712399,-78.7322449,Virginia,United States,22840,us
The Diamond Hideaway,Entire holiday home,Murfreesboro,9.3,Superb,4,0,0,35.8460396,-86.3921096,Tennessee,United States,37130,us
Hilton Daytona Beach Resort,2 private suite,Daytona Beach,7.1,Good,2,0,339,29.2108147,-81.0228331,Florida,United States,32114,us
The Club at New Seabury,Entire apartment,Mashpee,8.8,Fabulous,4,0,0,41.6484421,-70.4811383,Massachusetts,United States,02649,us
Litchfield Beach & Golf Resort,2 entire vill,Pawleys Island,7.5,Good,2,0,0,33.4293486,-79.1215912,South Carolina,United States,29585,us
Teton Valley Resort,2 private suite,Victor,8.9,Fabulous,2,0,0,41.7313887,-92.2979429,Iowa,United States,52347,us
Myrtlewood Condos,Entire vill,Myrtle Beach,7.6,Good,3,0,0,33.6956461,-78.8900409,South Carolina,United States,29577,us
La Isla South Padre Residences,Entire apartment,South Padre Island,8.5,Very good,3,0,0,26.1036887,-97.1646938,Texas,United States,78597,us
Aston At Poipu Kai,Private suite,"Poipu, Koloa",8.2,Very good,4,0,0,21.89046,-159.466,Hawaii,United States,96756,us
Hilton Suites Ocean City Oceanfront,2 private suite,"Midtown, Ocean City",8.8,Fabulous,2,0,0,38.3926679,-75.06488315,Maryland,United States,21842,us
Meliá Orlando Celebration,Private suite,"Celebration, Orlando",8.4,Very good,1,0,0,28.5462415,-81.347551,Florida,United States,32803,us
Paradise at Canyon Lake,Entire holiday home,Canyon Lake,9.2,Superb,3,0,0,33.6836539,-117.262615,California,United States,92587,us
Sonder The Plymouth,Private suite,"Chicago Loop, Chicago",8.1,Very good,2,0,0,41.886493,-87.62012440000001,Illinois,United States,60601,us
Diamond Adventure Slope Side with Foosball and Arcade at Wintergreen Resort,Entire apartment,Wintergreen,,Exceptional,4,0,0,37.884862,-78.8994672,Virginia,United States,22958,us
Villas at Bahia Mar,Entire vill,South Padre Island,8.4,Very good,4,0,0,26.1036887,-97.1646938,Texas,United States,78597,us
Kasa Arlington Dallas,Entire apartment,Arlington,8.1,Very good,4,0,0,32.7355816,-97.1071186,Texas,United States,76010,us
Banyan Harbor Resort,Entire apartment,Lihue,8.1,Very good,3,0,0,21.9769622,-159.3687721,Hawaii,United States,96766,us
Exhibit A2,Entire apartment,Ann Arbor,8.7,Fabulous,3,0,0,42.2681569,-83.7312291,Michigan,United States,48104,us
Summerspell Condominum,Entire apartment,"Miramar Beach, Destin",8.9,Fabulous,4,0,0,30.3776819,-86.3415734,Florida,United States,32550,us
Park Avenue Lofts,Entire holiday home,Freeport,8.2,Very good,3,0,0,42.2966861,-89.6212271,Illinois,United States,61032,us
Saida,Entire apartment,South Padre Island,8.5,Very good,4,0,0,26.1036887,-97.1646938,Texas,United States,78597,us
Sonder Lafayette Square,Private suite,"Downtown New Orleans, New Orleans",8.1,Very good,3,0,0,29.9504324,-90.07694881971895,Louisiana,United States,70113,us
Beach Harbour 16 @ The Carolina Beach Boardwalk - Full Remodel!,Entire apartment,Carolina Beach,9.5,Exceptional,5,0,0,34.0351727,-77.8935966,North Carolina,United States,28428,us
Siena at Bella Collina,Entire apartment,Montverde,9.5,Exceptional,2,0,0,28.6002769,-81.673964,Florida,United States,34756,us
Royale Palms Condominiums,2 entire apartment,Myrtle Beach,8.3,Very good,2,0,0,33.6956461,-78.8900409,South Carolina,United States,29577,us
Flying Flags RV Resort & Campground,2 entire bungalow,Buellton,8.6,Fabulous,2,0,0,34.6134727,-120.193669,California,United States,93427,us
Sonder at Jackwill Flats,Private suite,San Diego,8.2,Very good,2,0,0,32.7174202,-117.1627728,California,United States,,us
1815 A Slice of Heaven Destin - Pool & Ocean View,Entire apartment,Destin,9.6,Exceptional,3,0,0,30.3935337,-86.4957834,Florida,United States,32540,us
Beaver Village by Stay WinterPark,Entire apartment,Winter Park,8.3,Very good,3,0,0,28.5977707,-81.3510264,Florida,United States,32789,us
Classic CWE 2BR with Full Kitchen by Zencity,Entire apartment,Tower Grove,8.0,Very good,2,0,0,38.6225517,-90.2662246,Missouri,United States,63110,us
ROOST Cleveland,Private suite,"Downtown Cleveland, Cleveland",9.5,Exceptional,2,0,0,35.14023735,-97.39468693478696,Oklahoma,United States,73068,us
Florence,Entire apartment,South Padre Island,8.2,Very good,4,0,0,26.1036887,-97.1646938,Texas,United States,78597,us
Brook Road Inn,Private suite,Goshen,8.1,Very good,3,0,0,41.5824086,-85.834366,Indiana,United States,46526,us
Bay Club Resort,Entire apartment,"Midtown, Ocean City",7.3,Good,4,0,0,38.3926679,-75.06488315,Maryland,United States,21842,us
SLS South Beach,2 entire vill,"South Beach, Miami Beach",7.2,Good,2,0,0,25.7744291,-80.1332415,Florida,United States,33139,us
The Penthouse at Grand Plaza,Entire apartment,"River North, Chicago",9.2,Superb,3,0,0,41.899123200000005,-87.64091641045113,Illinois,United States,60610,us
Nice cozy townhouse,Entire holiday home,Bushkill,9.2,Superb,4,0,0,41.093429,-75.0018401,Pennsylvania,United States,18324,us
Sea Vista,Entire apartment,South Padre Island,8.0,Very good,4,0,0,26.1036887,-97.1646938,Texas,United States,78597,us
Ski in/out Spruce Glen Townhomes on Great Eastern Trail,Entire holiday home,Killington,9.2,Superb,4,0,0,43.67433,-72.7784445,Vermont,United States,05751,us
Beary Patch Hill,Entire holiday home,Sevierville,8.8,Fabulous,2,0,0,35.8667112,-83.5620518,Tennessee,United States,37862,us
Marina Inn at Grande Dunes,2 entire studio,Myrtle Beach,8.8,Fabulous,2,972,0,33.6956461,-78.8900409,South Carolina,United States,29577,us
414 Waldburg A · Newly Renovated Apt with outdoor space!,Entire apartment,"Downtown Savannah, Savannah",8.5,Very good,3,1370,0,32.075281950000004,-81.0984566550849,Georgia,United States,31401,us
Sonder Bouldin Creek,Private suite,"South Austin, Austin",8.6,Fabulous,4,936,0,41.8708988,-87.7767955,Illinois,United States,60304,us
Ocean Reef 2 bedroom/2 bath!,Entire apartment,Panama City Beach,8.3,Very good,3,595,0,30.1765914,-85.805386,Florida,United States,32408,us
Sonder The Esplanade,Private suite,"Faubourg Marigny, New Orleans",7.7,Good,2,1091,0,29.965759,-90.054238,Louisiana,United States,70117,us
Sugar Shack by Big Bear Cool Cabins,Entire holiday home,Sugarloaf,9.0,Superb,2,2479,0,-36.17525415,175.1122321367032,Auckland,New Zealand/Aotearoa,0991,nz
Abode Los Angeles - Downtown Historic Core,Entire apartment,"Downtown Los Angeles, Los Angeles",8.0,Very good,3,1466,0,34.0428494,-118.2476732,California,United States,90013,us
"Hampton 6107, 2 Bedroom, Sleeps 6, Large Pool, Oceanfront View",Entire apartment,Hilton Head Island,8.8,Fabulous,3,864,0,32.1618488,-80.7512616,South Carolina,United States,29928,us
Luxurious 2Bedroom 2Bath minutes from the water,Entire apartment,Pensacola,9.3,Superb,2,545,0,30.421309,-87.2169149,Florida,United States,32503,us
ATL Downtown! City View! Onsite Parking! POOL! LM1K1Q,Entire apartment,"Downtown Atlanta, Atlanta",7.3,Good,2,805,0,33.7543408,-84.3870791,Georgia,United States,30303,us
Coco Bay Luxury Condos,Entire apartment,Fort Lauderdale,8.9,Fabulous,3,1931,0,26.1223084,-80.1433786,Florida,United States,33301,us
Sonder The Bywater,Private suite,New Orleans,8.8,Fabulous,2,1091,0,29.9759983,-90.0782127,Louisiana,United States,70119,us
The Cliff House - Lincoln City,Entire holiday home,Lincoln City,,Exceptional,2,2238,0,44.9617922,-124.0159522,Oregon,United States,97367,us
Greeter Falls Lodge Cottage #7,Entire holiday home,Beersheba Springs,,Exceptional,3,575,0,35.4667379,-85.6541419,Tennessee,United States,37305,us
Country Cottage,Entire holiday home,Big Bear City,7.5,Good,4,1860,0,34.267886,-116.84859785319148,California,United States,92314,us
ICON Brickell residences,Entire apartment,"Brickell, Miami",7.7,Good,3,1655,0,25.7637907,-80.1954604,Florida,United States,33131,us
Tradewinds Unit 406,Entire apartment,Orange Beach,7.9,Good,4,623,0,30.282839799999998,-87.62460710389821,Alabama,United States,36561,us
Moon River Suites #3,Entire holiday home,North Bend,9.5,Exceptional,3,1437,0,47.4957757,-121.784889,Washington,United States,98045,us
"Puppies Hollow, 2 Bedrooms, Pets, WiFi, Pool Access, Fireplace, Sleeps 4",Entire holiday home,Gatlinburg,7.3,Good,3,1133,0,35.714259,-83.5101638,Tennessee,United States,37738,us
Kasa Downtown Louisville,Entire apartment,"Downtown Louisville, Louisville",7.3,Good,4,0,0,38.24084425,-85.75478029351535,Kentucky,United States,40203,us
Downtown ATL Condo w Pool King Bed LM1K2T,Entire apartment,"Downtown Atlanta, Atlanta",7.9,Good,3,0,202,33.7543408,-84.3870791,Georgia,United States,30303,us
Luxurious Highrise 2b 2b Apartment Heart Of Downtown LA,Entire apartment,"Downtown Los Angeles, Los Angeles",8.4,Very good,3,0,298,34.0428494,-118.2476732,California,United States,90013,us
"Downtown Saugatuck Condo, Near Oval Beach!",Entire apartment,Saugatuck,7.9,Good,2,0,632,42.6549244,-86.2040552,Michigan,United States,49453,us
"Ocean Village Club R11, 2 Bedrooms, Sleeps 6, 2 Pools, WiFi",Entire apartment,St. Augustine,8.5,Very good,3,0,236,29.8946952,-81.3145395,Florida,United States,32084,us
Bourbon Street Condos,Entire apartment,"Faubourg Marigny, New Orleans",7.8,Good,4,0,394,29.965759,-90.054238,Louisiana,United States,70117,us
Crystal Shores West 202,Entire apartment,Gulf Shores,8.4,Very good,3,0,0,30.2711224,-87.6893826,Alabama,United States,36542,us
Fantastic Philly Fully Furnished Apartments,Entire apartment,"Philadelphia City Center, Philadelphia",7.2,Good,3,0,205,39.9525541,-75.15202163851058,Pennsylvania,United States,19106,us
Sun and Sea by Beachside Management,Entire vill,Siesta Key,8.6,Fabulous,4,0,0,27.275596,-82.5561626939674,Florida,United States,34242,us
Montgomery House,Entire apartment,New Orleans,8.5,Very good,2,0,294,29.9759983,-90.0782127,Louisiana,United States,70119,us
"Sleeps 6! 2 Bedrm, Gym, Close to Major Attractions",Entire apartment,"South Philadelphia, Philadelphia",8.2,Very good,3,0,265,39.9255456,-75.1694641,Pennsylvania,United States,19145,us
Nana's Cottage Retreat,Entire holiday home,Big Bear City,9.0,Superb,3,0,234,34.267886,-116.84859785319148,California,United States,92314,us
Islander Bayside Villas & Boatslips,2 entire apartment,Islamorada,8.6,Fabulous,2,0,191,24.9236561,-80.6291479,Florida,United States,33036,us
Bearly Gnomey,Entire chalet,Gatlinburg,9.0,Superb,2,0,620,35.714259,-83.5101638,Tennessee,United States,37738,us
"Hang Ten Hideaway Oceanview, pool, Condo, Parking",Entire holiday home,Carolina Beach,8.0,Very good,5,0,236,34.0351727,-77.8935966,North Carolina,United States,28428,us
Rincon Cabin,Entire holiday home,Big Bear Lake,9.2,Superb,2,0,238,34.2440587,-116.91018,California,United States,92315,us
Downtown Musical Getaway,Entire apartment,"Downtown Houston, Houston",9.1,Superb,1,0,0,29.75831015,-95.36294195965999,Texas,United States,77002,us
Kasa Love Field-Medical District Dallas,Entire apartment,Dallas,7.9,Good,4,0,0,32.7762719,-96.7968559,Texas,United States,75201,us
Vivant - Spacious 2BR King Bed Suites Close to Downtown and Airport,Entire apartment,Austin,9.8,Exceptional,3,0,1127,30.2711286,-97.7436995,Texas,United States,78701,us
Play All Day - Sleep By The Stream at Night - Swimming Hole,Entire apartment,Palenville,9.0,Superb,3,0,0,42.1745334,-74.0201355,New York,United States,12463,us
Atlanta Downtown! High Rise! Onsite Parking LM609,Entire apartment,"Downtown Atlanta, Atlanta",8.6,Fabulous,3,0,0,33.7543408,-84.3870791,Georgia,United States,30303,us
Starfish Point,Entire apartment,Newport,9.7,Exceptional,3,0,0,41.4899827,-71.3137707,Rhode Island,United States,,us
The Historic Divine Lorraine Apartments,Entire apartment,Philadelphia,8.7,Fabulous,5,0,0,39.9527237,-75.1635262,Pennsylvania,United States,19107,us
Beach Drive Suites,Entire apartment,Seaside,8.4,Very good,2,0,0,36.62593,-121.8169383456945,California,United States,93955,us
@ Marbella Lane - 10 Acres Oasis Desert Retreat!,Entire holiday home,Joshua Tree,8.9,Fabulous,2,0,0,34.1265262,-116.32093491214893,California,United States,92252,us
Tradewinds 307,Entire apartment,Orange Beach,7.8,Good,3,0,0,30.282839799999998,-87.62460710389821,Alabama,United States,36561,us
Modern 2BR 3BA Condo on the Boardwalk by CozySuites,Entire apartment,Atlantic City,8.8,Fabulous,3,0,0,39.3642852,-74.4229351,New Jersey,United States,08402,us
Breathtaking Appartment in the heart of marina Del Rey/ Venice Beach,Entire apartment,"Marina Del Rey, Los Angeles",8.1,Very good,4,0,0,33.9776848,-118.448647,California,United States,90292,us
Waldorf Astoria Monarch Beach Resort & Club,2 entire studio,Dana Point,8.9,Fabulous,2,0,0,33.4669721,-117.6981075,California,United States,92629,us
Renu at Jacksonville,Entire apartment,Jacksonville,8.1,Very good,3,0,0,30.3321838,-81.655651,Florida,United States,32202,us
"Ocean Village Club G21, 2 Bedrooms, Heated Pool, Sleeps 4, Pet Friendly",Entire apartment,St. Augustine,8.3,Very good,3,0,0,29.8946952,-81.3145395,Florida,United States,32084,us
Atlanta Furnished Apartments - Great location in the Heart of the City,Entire apartment,"Buckhead - North Atlanta, Atlanta",8.3,Very good,3,0,0,33.8334,-84.3785,Georgia,United States,30305,us
Unforgettable Vacation Experience at Ocean Forest Villas,Private suite,Myrtle Beach,7.9,Good,4,0,0,33.6956461,-78.8900409,South Carolina,United States,29577,us
The White House,Entire holiday home,West Palm Beach,9.2,Superb,3,0,0,26.715364,-80.0532942,Florida,United States,33401,us
Meadow View Chalet-1632 by Big Bear Vacations,Entire holiday home,Big Bear City,7.5,Good,4,0,0,34.267886,-116.84859785319148,California,United States,92314,us
Sweet Blue Spruce,Entire holiday home,Big Bear Lake,8.0,Very good,3,0,0,34.2440587,-116.91018,California,United States,92315,us
2 Bedroom Elegant condos in Downtown New Orleans,Entire apartment,"Downtown New Orleans, New Orleans",8.1,Very good,3,0,0,29.9504324,-90.07694881971895,Louisiana,United States,70113,us
Elegant Cottage with Wonderful Views near FH Lake,Entire apartment,Show Low,9.3,Superb,3,0,0,34.2542084,-110.029832,Arizona,United States,85901,us
Margaritaville Cottages Orlando by Rentyl,Entire apartment,"Celebration, Orlando",8.3,Very good,3,0,0,28.5462415,-81.347551,Florida,United States,32803,us
Stylish Warehouse Apartments,Entire apartment,"Arts- Warehouse District, New Orleans",9.0,Superb,2,0,0,29.9439013,-90.06496413282588,Louisiana,United States,70130,us
Chateau 17,Entire apartment,Hammond,9.8,Exceptional,1,0,0,41.5833658,-87.500043,Indiana,United States,46324,us
StayOvr at LegacyWest,Entire apartment,"Legacy West, Plano",8.7,Fabulous,2,0,0,33.0808813,-96.82621945349385,Texas,United States,75024,us
A Lovely Cabin House at Way Woods Retreat with Outdoor Hot Tub!,Entire holiday home,Foresthill,9.3,Superb,4,0,0,39.0019935,-120.82540181422367,California,United States,95631,us
Fabulous Cottages with City Views,Entire apartment,"Central City, New Orleans",8.1,Very good,3,0,255,29.9461665,-90.0784417,Louisiana,United States,70103,us
The West Gem,Entire apartment,"South Beach, Miami Beach",8.0,Very good,4,0,0,25.7744291,-80.1332415,Florida,United States,33139,us
New Ocean Front Corner Unit,Entire apartment,"Downtown Myrtle Beach, Myrtle Beach",8.3,Very good,3,0,0,33.6945202,-78.8835706,South Carolina,United States,,us
2 bedroom w/ upstairs balcony attached to Master,Entire holiday home,Houston,8.1,Very good,3,0,0,29.7589382,-95.3676974,Texas,United States,77002,us
Atlantic Ocean Suites,Private suite,Old Orchard Beach,8.7,Fabulous,3,0,334,43.517684,-70.377731,Maine,United States,04064,us
Ariel Dunes II 602,Entire apartment,"Miramar Beach, Destin",8.9,Fabulous,1,0,245,30.3776819,-86.3415734,Florida,United States,32550,us
2BR 3BA Ocean Front condo on the Boardwalk CozySuites,Entire apartment,Atlantic City,8.6,Fabulous,5,0,394,39.3642852,-74.4229351,New Jersey,United States,08402,us
"Beachfront Destin Condo with Pool, Harbor View!",Entire apartment,Destin,8.5,Very good,2,0,0,30.3935337,-86.4957834,Florida,United States,32540,us
The Raspberry Garden,Entire apartment,Rexburg,8.7,Fabulous,2,0,0,43.8235163,-111.787022,Idaho,United States,83440,us
Modern Home nearby Airport,Entire holiday home,Conley,9.5,Exceptional,3,0,0,33.6448311,-84.3257571,Georgia,United States,30288,us
Luxury Downtown Dallas Stay by Amyfinehouse,Entire apartment,"Downtown Dallas, Dallas",8.0,Very good,3,683,0,32.7797876,-96.7980118,Texas,United States,75201,us
New Waterfront Bungalow - Fishermans Paradise - Bungalow Tarvana,Entire holiday home,South Padre Island,,Exceptional,1,629,0,26.1036887,-97.1646938,Texas,United States,78597,us
"River Access Cabin Hot Tub, WiFi, Huge Deck&Grill",Entire vill,Luray,7.9,Good,2,1749,0,48.7201659,1.3972981,Centre-Val de Loire,France,28500,fr
1549 North Maplewood Avenue,Entire apartment,"Wicker Park, Chicago",8.6,Fabulous,3,654,0,41.9078018,-87.6781551,Illinois,United States,60622,us
Brown Bears Cabin-1091 by Big Bear Vacations,Entire holiday home,Big Bear Lake,8.8,Fabulous,3,1725,0,34.2440587,-116.91018,California,United States,92315,us
La Isla Residences Luxury Condominiums,Entire apartment,South Padre Island,7.8,Good,4,1091,0,26.1036887,-97.1646938,Texas,United States,78597,us
WALK TO NRG-CITY VIEW BALCONY- FREE PARKING-2bdrm near NRG-Med Center-Galleria-Downtown,Entire apartment,Houston,9.4,Superb,1,326,0,29.7589382,-95.3676974,Texas,United States,77002,us
Marbella Towers High Floor Wonderful Condos,Entire apartment,Sunny Isles Beach,9.0,Superb,5,2873,0,25.9426915,-80.1218486,Florida,United States,33160,us
The Van Zant House,Entire holiday home,Jacksonville,8.8,Fabulous,3,424,0,30.3321838,-81.655651,Florida,United States,32202,us
Boardwalk 2BR 3BA Condo CozySuites at Showboat,Entire apartment,Atlantic City,9.3,Superb,5,664,0,39.3642852,-74.4229351,New Jersey,United States,08402,us
New Luxury Loft #12 Near Resort With Huge Hot Tub & Views - FREE Activities & Equipment Rentals Daily,Entire holiday home,Winter Park,9.7,Exceptional,5,3803,0,28.5977707,-81.3510264,Florida,United States,32789,us
Water View Home,Entire apartment,Seattle,9.5,Exceptional,3,1231,0,47.6038321,-122.330062,Washington,United States,98104,us
"Luxury 3 Bedroom, 20 min to Boston, 15min Encore",Entire apartment,Malden,7.0,Good,2,807,0,42.4250964,-71.066163,Massachusetts,United States,02148,us
Quaint cabin near many attractions w/ private dock,Entire apartment,Newaygo,8.2,Very good,3,445,0,43.5121225,-85.7944976,Michigan,United States,49349,us
"A Lovely 2 bedroom 2 full Bath Apartment Unit with Desk and Den, Rental Car Available",Entire apartment,"Westchase, Houston",9.1,Superb,2,495,0,29.730322299999997,-95.56245837420101,Texas,United States,77042,us
"Magnolia North 2BR Condo w Pool, Near Beach and Golf",Entire apartment,Myrtle Beach,8.8,Fabulous,4,414,0,33.6956461,-78.8900409,South Carolina,United States,29577,us
Kasa Downtown South Bend,Entire apartment,South Bend,8.0,Very good,4,619,0,41.6833813,-86.2500066,Indiana,United States,46601,us
The Georgia Peach -near Plant Riverside & downtown,Entire apartment,"Downtown Savannah, Savannah",,Exceptional,2,1690,0,32.075281950000004,-81.0984566550849,Georgia,United States,31401,us
Huge Beachfront Condo CozySuites at Showboat,Entire apartment,Atlantic City,8.6,Fabulous,5,664,0,39.3642852,-74.4229351,New Jersey,United States,08402,us
The Current I Sextant,Entire apartment,Miami Beach,8.2,Very good,4,1820,0,25.7929198,-80.1353006,Florida,United States,33139,us
Modern spacious home with Pool/Ping pong table in Midtown Atlanta !,Entire apartment,Atlanta,,Exceptional,3,603,0,33.7489924,-84.3902644,Georgia,United States,30303,us
Azure Smart Hub near Med CTR & NRG,Entire apartment,"Medical Center, Houston",9.0,Superb,2,510,266,29.7026477,-95.39593537088199,Texas,United States,77030,us
The Pearl Of Detroit/10 Minutes To Down Town,Entire apartment,Detroit,7.6,Good,3,654,0,42.3315509,-83.0466403,Michigan,United States,48226,us
Villa 5,Entire apartment,Hammond,9.8,Exceptional,3,837,423,41.5833658,-87.500043,Indiana,United States,46324,us
"Sea Place 11208, 2 Bedrooms, Sleeps6, Tennis, Ocean Front, Pool, WiFi",Entire apartment,St. Augustine,9.2,Superb,4,1433,0,29.8946952,-81.3145395,Florida,United States,32084,us
Greeter Falls Lodge Cottage #6,Entire holiday home,Altamont,9.6,Exceptional,3,575,0,37.1903448,-95.2971928,Kansas,United States,67330,us
Luxe Ocean Front Condo CozySuites at Showboat,Entire apartment,Atlantic City,8.0,Very good,5,664,0,39.3642852,-74.4229351,New Jersey,United States,08402,us
Cloud Nine Cottage,Entire holiday home,Big Lake,9.1,Superb,3,645,0,31.1954739,-101.4592746,Texas,United States,76932,us
Beach Block Parking Modern Decor Porch,Entire apartment,Brigantine,9.5,Exceptional,3,904,0,39.4101171,-74.3645906,New Jersey,United States,08203,us
Crystal Tower 1506,Entire apartment,Gulf Shores,8.3,Very good,3,497,0,30.2711224,-87.6893826,Alabama,United States,36542,us
Hosteeva Atlantica Beachfront Condo,Entire apartment,Myrtle Beach,8.1,Very good,4,649,0,33.6956461,-78.8900409,South Carolina,United States,29577,us
Hacienda del Sol II - 404,Entire holiday home,New Smyrna Beach,9.6,Exceptional,4,897,0,29.0258132,-80.9271271,Florida,United States,32168,us
Desert Gardens #3,Entire holiday home,Moab,9.5,Exceptional,2,1675,0,38.5738096,-109.546214,Utah,United States,84532,us
The Dawn Oceanfront Bliss on Famous Seawall Blvd,Entire apartment,"West End, Galveston",9.2,Superb,3,1237,0,29.14535815,-95.04689286859056,Texas,United States,77554,us
"Villa Serenity, Pet Friendly",Entire holiday home,Panama City Beach,8.1,Very good,1,1067,0,30.1765914,-85.805386,Florida,United States,32408,us
Italian Villa with Backyard - 1mi to Beach,Entire holiday home,Boynton Beach,8.0,Very good,2,911,0,26.5256179,-80.0666026,Florida,United States,33435,us
Paradise Beach Club - Oceanfront and Penthouse,Entire apartment,Satellite Beach,8.9,Fabulous,3,3641,0,28.1761233,-80.5900519,Florida,United States,32937,us
Two Story Townhouse,Entire apartment,"Downtown Key West, Key West",7.0,Good,3,4164,0,24.5521355,-81.79282577364836,Florida,United States,33040,us
Irish American INN,Entire apartment,Newport,8.9,Fabulous,3,1963,0,41.4899827,-71.3137707,Rhode Island,United States,,us
Forest Glen,Entire holiday home,Big Bear Lake,9.5,Exceptional,2,2233,0,34.2440587,-116.91018,California,United States,92315,us
The River Cottage,Entire apartment,Pigeon Forge,9.1,Superb,2,1039,0,35.7884241,-83.5543329,Tennessee,United States,37863,us
Rustic Clint Eastwood Ranch Apt by Raystown Lake,Entire holiday home,Huntingdon,8.2,Very good,3,436,0,40.3446332,-78.0281185,Pennsylvania,United States,16622,us
13 Lodge,Entire apartment,Hood River,9.0,Superb,2,484,0,45.5311636,-121.6475587,Oregon,United States,,us
Stylish 2BR 3BA CozySuites on the Boardwalk,Entire apartment,Atlantic City,8.9,Fabulous,5,664,0,39.3642852,-74.4229351,New Jersey,United States,08402,us
Snow Summit Townhouse,Entire holiday home,Big Bear Lake,9.0,Superb,3,2851,0,34.2440587,-116.91018,California,United States,92315,us
"Oceanfront beach, sky, & dolphins",Entire apartment,"Virginia Beach Boardwalk, Virginia Beach",9.7,Exceptional,4,1453,0,36.84363895,-75.97089101547536,Virginia,United States,23451,us
Brickell Deluxe Apartment with Free Parking,Entire apartment,"Brickell, Miami",8.3,Very good,4,1316,0,25.7637907,-80.1954604,Florida,United States,33131,us
Galveston Beach House with Private Deck and Gulf Views,Entire holiday home,"West End, Galveston",9.5,Exceptional,3,845,0,29.14535815,-95.04689286859056,Texas,United States,77554,us
NEW! Smokies Escape in Pigeon Forge!,Entire holiday home,Pigeon Forge,8.9,Fabulous,5,2213,0,35.7884241,-83.5543329,Tennessee,United States,37863,us
"Ocean Village Club K12, 2 Bedrooms, Sleeps 4, Heated Pool, WiFi",Entire apartment,St. Augustine,9.6,Exceptional,2,852,0,29.8946952,-81.3145395,Florida,United States,32084,us
Little Italy Lodge-2 Bedroom Stay in Bloomfield,Entire apartment,Pittsburgh,,Exceptional,1,716,0,40.4416941,-79.9900861,Pennsylvania,United States,15219,us
Ariel Dunes II 109,Entire apartment,"Miramar Beach, Destin",7.8,Good,1,456,0,30.3776819,-86.3415734,Florida,United States,32550,us
Hilton Head Condo - Walk to Folly Field Beach!,Entire apartment,Hilton Head Island,7.3,Good,4,0,576,32.1618488,-80.7512616,South Carolina,United States,29928,us
Crystal Tower 904,Entire apartment,Gulf Shores,8.6,Fabulous,3,0,1093,30.2711224,-87.6893826,Alabama,United States,36542,us
Edgewater Condo Unit #303 Apts,Entire apartment,South Padre Island,8.6,Fabulous,3,0,657,26.1036887,-97.1646938,Texas,United States,78597,us
The Fox Paw,Entire holiday home,Big Bear Lake,8.0,Very good,4,0,0,34.2440587,-116.91018,California,United States,92315,us
Villa 2,Entire apartment,Hammond,9.9,Exceptional,2,0,0,41.5833658,-87.500043,Indiana,United States,46324,us
Holden Beach Your Way,Entire holiday home,Holden Beach,8.5,Very good,3,0,0,33.9135061,-78.3038892,North Carolina,United States,28462,us
Cabin Chic,Entire holiday home,Big Bear City,9.0,Superb,3,0,0,34.267886,-116.84859785319148,California,United States,92314,us
"Evian 123, 2 Bedrooms, Sleeps 6, Pool, Golf View",Entire apartment,Hilton Head Island,9.0,Superb,4,0,0,32.1618488,-80.7512616,South Carolina,United States,29928,us
"Modern Ski Chalet, 10mins to Skiing, Hot Tub & Mountain Views",Entire chalet,Whitefish,,Exceptional,3,0,0,48.450293,-114.33828531635987,Montana,United States,59937,us
Sea Breeze 119 by Bender Vacation Rentals,Entire apartment,Gulf Shores,8.5,Very good,4,0,0,30.2711224,-87.6893826,Alabama,United States,36542,us
"The WILLA on 7th, located in Downtown BENTONVILLE!",Entire holiday home,Bentonville,9.3,Superb,4,0,0,36.3728538,-94.2088172,Arkansas,United States,72712,us
Private Beach Haven with All of the Comforts,Entire holiday home,Herbster,,Exceptional,1,0,0,46.8324331,-91.2610177,Wisconsin,United States,54844,us
Los Cabos III Condominiums,Entire apartment,South Padre Island,7.1,Good,4,0,0,26.1036887,-97.1646938,Texas,United States,78597,us
"Bright & Airy 2BR, 3 Blocks From The Beach",Entire apartment,Ventnor City,7.2,Good,1,0,0,39.3405045,-74.4773916,New Jersey,United States,08406,us
@ Marbella Lane - Waterfront 2BR Whidbey Island,Entire holiday home,Coupeville,9.3,Superb,4,0,0,48.9105864,4.6239934,Grand Est,France,51240,fr
Beachfront 2BR 3BA Condo CozySuites at Showboat,Entire apartment,Atlantic City,7.9,Good,5,0,0,39.3642852,-74.4229351,New Jersey,United States,08402,us
"Ocean Walk, 2 Bedrooms, Sleeps 6, Ocean Views, New Pool",Entire holiday home,Palm Coast,8.0,Very good,4,0,0,29.5541432,-81.2207673,Florida,United States,32137,us
Two Bedroom Apartment at the Palace Resort,Entire apartment,Myrtle Beach,7.5,Good,4,0,0,33.6956461,-78.8900409,South Carolina,United States,29577,us
Boardwalk CozySuites Beachfront 2BR 3BA Condo,Entire apartment,Atlantic City,7.8,Good,5,0,358,39.3642852,-74.4229351,New Jersey,United States,08402,us
Phillips Historic Motel & Cottages,Entire bungalow,Robbinsville,7.9,Good,4,0,0,35.3227597,-83.8069988,North Carolina,United States,28771,us
Centrally Located Coffee Bar & Comfort 3,Entire apartment,Fairbanks,7.6,Good,1,0,346,64.837845,-147.716675,Alaska,United States,99703,us
@ Marbella Lane 2BR Lower Level House in Downtown San Jose,Entire apartment,San Jose,8.0,Very good,4,0,0,37.3361663,-121.890591,California,United States,95113,us
Corry Bungalow,Entire holiday home,Pensacola,9.2,Superb,3,0,0,30.421309,-87.2169149,Florida,United States,32503,us
Escape to Bearadise,Entire holiday home,Big Bear Lake,,Exceptional,4,0,0,34.2440587,-116.91018,California,United States,92315,us
Moondrifter 506 By ZIA,Entire apartment,Panama City Beach,8.8,Fabulous,4,0,266,30.1765914,-85.805386,Florida,United States,32408,us
Red Roof,Entire holiday home,Stanley,8.3,Very good,2,0,0,-51.6950575,-57.8491693,,Falkland Islands,,fk
West NewYork NJ Cozy 2bed apt backyard to stay,Entire apartment,West New York,,Exceptional,3,0,0,40.7856117,-74.0093129,New Jersey,United States,07093,us
A Humble Hilltop Hideaway,Entire holiday home,Big Bear City,8.7,Fabulous,2,0,0,34.267886,-116.84859785319148,California,United States,92314,us
Trifecta Historic Brick 2BR Getaway Superhost,Entire apartment,Durham,9.0,Superb,3,452,0,35.996653,-78.9018053,North Carolina,United States,27701,us
Paris luxury,Entire apartment,Hallandale Beach,8.0,Very good,1,3089,0,25.9812025,-80.148379,Florida,United States,33009,us
Luxurious Fort Lauderdale Pool Home,Entire holiday home,Fort Lauderdale,,Exceptional,2,1567,0,26.1223084,-80.1433786,Florida,United States,33301,us
"Oceanfront, 2BR, 2BA Condo, St. Regis #3213, Topsail, NC",Entire apartment,North Topsail Beach,9.1,Superb,3,735,0,34.4901665,-77.43163,North Carolina,United States,28460,us
General Butler State Resort Park,2 entire holiday home,Carrollton,7.7,Good,2,1050,0,32.9537349,-96.8902816,Texas,United States,75006,us
Woodland Retreat,Entire holiday home,Hancock,8.8,Fabulous,4,517,0,40.3941712,-91.1458063,Illinois,United States,62321,us
Cozy Isle,Entire apartment,Port Aransas,8.0,Very good,3,542,0,27.8332175,-97.0618324,Texas,United States,78373,us
"Surfside Six E, 2 Bedrooms, Ocean Front, Sleeps 6, Wireless Internet",Entire apartment,St. Augustine,8.4,Very good,4,1799,0,29.8946952,-81.3145395,Florida,United States,32084,us
Hacienda del Sol II - 513,Entire apartment,New Smyrna Beach,9.0,Superb,4,1190,0,29.0258132,-80.9271271,Florida,United States,32168,us
Waterway Village by Palmetto Vacations,Entire apartment,Myrtle Beach,7.3,Good,1,456,0,33.6956461,-78.8900409,South Carolina,United States,29577,us
Dune With A View,Entire holiday home,Lincoln City,8.0,Very good,2,2014,0,44.9617922,-124.0159522,Oregon,United States,97367,us
Sweet Dreams,Entire holiday home,Dauphin Island,9.2,Superb,3,1548,0,30.2542022,-88.1124817,Alabama,United States,36528,us
The Lodges at Sunset Village,Entire chalet,McHenry,8.5,Very good,1,2274,0,42.3294391,-88.4605713,Illinois,United States,60098,us
Bear Retreat,Entire holiday home,Big Bear Lake,,Exceptional,4,2511,0,34.2440587,-116.91018,California,United States,92315,us
Little Big Pine,Entire holiday home,Big Bear Lake,8.9,Fabulous,3,1983,0,34.2440587,-116.91018,California,United States,92315,us
Chic Paris Beach Getaway - 1mi to beach,Entire holiday home,Boynton Beach,7.3,Good,3,1068,0,26.5256179,-80.0666026,Florida,United States,33435,us
Village Hideaway,Entire holiday home,Big Bear Lake,7.8,Good,3,2851,0,34.2440587,-116.91018,California,United States,92315,us
"Artist Road #30, 2 Bedrooms, Fireplace, Pool Access, Washer/Dryer, Sleeps 4",Entire apartment,Santa Fe,9.0,Superb,3,2489,0,-30.3154739,-61.1645076,Santa Fe,Argentina,,ar
Bear Country Cabin,Entire holiday home,Big Bear City,7.6,Good,3,1983,0,34.267886,-116.84859785319148,California,United States,92314,us
Sea Breeze 305,Entire apartment,Gulf Shores,9.4,Superb,2,700,0,30.2711224,-87.6893826,Alabama,United States,36542,us
Hacienda del Sol II - 116,Entire apartment,New Smyrna Beach,,Exceptional,4,1353,0,29.0258132,-80.9271271,Florida,United States,32168,us
Lake Chelan Resort Condo Pool and Hot Tub Access!,Entire apartment,Manson,8.5,Very good,2,642,0,42.5291439,-94.5341421,Iowa,United States,50563,us
Cottage near Overton Park W/ 5 Large Beds and SOFA,Entire holiday home,"University District, Memphis",9.5,Exceptional,6,410,0,35.1393168,-90.0313529,Tennessee,United States,38163,us
Tides 611,Entire apartment,"Miramar Beach, Destin",,Exceptional,1,1149,0,30.3776819,-86.3415734,Florida,United States,32550,us
Fanciful Winters Lake,Entire holiday home,Big Bear Lake,7.8,Good,2,2479,238,34.2440587,-116.91018,California,United States,92315,us
"Xanadu 19-A, 2 Bedroom, Sleeps 6, Walk to Beach, Large Pool, Free Tennis",Entire apartment,Hilton Head Island,8.6,Fabulous,4,507,310,32.1618488,-80.7512616,South Carolina,United States,29928,us
Coy Cottage,Entire holiday home,Big Bear City,8.2,Very good,3,2975,0,34.267886,-116.84859785319148,California,United States,92314,us
Majestic Sun 403A Home,Entire holiday home,"Miramar Beach, Destin",9.1,Superb,4,885,525,30.3776819,-86.3415734,Florida,United States,32550,us
Shoreline Towers 1052 Condo,Entire apartment,Destin,8.5,Very good,3,1033,286,30.3935337,-86.4957834,Florida,United States,32540,us
Spacious Boardwalk 2BR 3BA Condo by CozySuites,Entire apartment,Atlantic City,8.4,Very good,5,664,250,39.3642852,-74.4229351,New Jersey,United States,08402,us
"Crescent Moon Casita, 2 Bedrooms, Patio, WiFi, Sleeps 4",Entire holiday home,Santa Fe,,Exceptional,2,1829,238,-30.3154739,-61.1645076,Santa Fe,Argentina,,ar
Ocean Time - Steps to the beach! Carolina beach charm surrounds you when your on Ocean Time! condo,Entire apartment,Carolina Beach,7.0,Good,1,714,708,34.0351727,-77.8935966,North Carolina,United States,28428,us
Edgewater Beautiful 2 bedroom 2 bath!,Entire apartment,Panama City Beach,8.1,Very good,3,1388,358,30.1765914,-85.805386,Florida,United States,32408,us
Ariel Dunes II 1007,Entire apartment,"Miramar Beach, Destin",8.3,Very good,1,684,397,30.3776819,-86.3415734,Florida,United States,32550,us
Genoa Golf Condo in Lely Resort,Entire apartment,Naples,9.0,Superb,3,3414,0,40.8358846,14.2487679,Campania,Italia,80132,it
My Ohana Getaway townhouse,Entire holiday home,"Miramar Beach, Destin",9.0,Superb,4,700,0,30.3776819,-86.3415734,Florida,United States,32550,us
Waterway Village by Palmetto Vacations,Entire apartment,Myrtle Beach,7.3,Good,1,0,422,33.6956461,-78.8900409,South Carolina,United States,29577,us
Dune With A View,Entire holiday home,Lincoln City,8.0,Very good,2,0,334,44.9617922,-124.0159522,Oregon,United States,97367,us
Sweet Dreams,Entire holiday home,Dauphin Island,9.2,Superb,3,0,537,30.2542022,-88.1124817,Alabama,United States,36528,us
The Lodges at Sunset Village,Entire chalet,McHenry,8.5,Very good,1,0,328,42.3294391,-88.4605713,Illinois,United States,60098,us
Bear Retreat,Entire holiday home,Big Bear Lake,,Exceptional,4,0,163,34.2440587,-116.91018,California,United States,92315,us
Little Big Pine,Entire holiday home,Big Bear Lake,8.9,Fabulous,3,0,556,34.2440587,-116.91018,California,United States,92315,us
Chic Paris Beach Getaway - 1mi to beach,Entire holiday home,Boynton Beach,7.3,Good,3,0,519,26.5256179,-80.0666026,Florida,United States,33435,us
Village Hideaway,Entire holiday home,Big Bear Lake,7.8,Good,3,0,441,34.2440587,-116.91018,California,United States,92315,us
"Artist Road #30, 2 Bedrooms, Fireplace, Pool Access, Washer/Dryer, Sleeps 4",Entire apartment,Santa Fe,9.0,Superb,3,0,430,-30.3154739,-61.1645076,Santa Fe,Argentina,,ar
"Island North 4A - Incredible ocean views, quiet and relaxing, located near Freeman Park condo",Entire apartment,Carolina Beach,8.5,Very good,1,0,561,34.0351727,-77.8935966,North Carolina,United States,28428,us
Bear Country Cabin,Entire holiday home,Big Bear City,7.6,Good,3,0,0,34.267886,-116.84859785319148,California,United States,92314,us
The Island Inn Condominiums by DC,Entire vill,Oak Bluffs,7.0,Good,3,0,388,41.4538523,-70.5684713,Massachusetts,United States,02557,us
Sea Breeze 305,Entire apartment,Gulf Shores,9.4,Superb,2,0,494,30.2711224,-87.6893826,Alabama,United States,36542,us
Hacienda del Sol II - 116,Entire apartment,New Smyrna Beach,,Exceptional,4,0,308,29.0258132,-80.9271271,Florida,United States,32168,us
Lake Chelan Resort Condo Pool and Hot Tub Access!,Entire apartment,Manson,8.5,Very good,2,0,427,42.5291439,-94.5341421,Iowa,United States,50563,us
Cottage near Overton Park W/ 5 Large Beds and SOFA,Entire holiday home,"University District, Memphis",9.5,Exceptional,6,0,263,35.1393168,-90.0313529,Tennessee,United States,38163,us
Majestic Sun 411B Home,Entire holiday home,"Miramar Beach, Destin",9.7,Exceptional,4,0,537,30.3776819,-86.3415734,Florida,United States,32550,us
Tides 611,Entire apartment,"Miramar Beach, Destin",,Exceptional,1,0,262,30.3776819,-86.3415734,Florida,United States,32550,us
Cozy Home Close to Downtown Tacoma,Entire holiday home,Tacoma,9.7,Exceptional,4,0,405,47.2495798,-122.439874,Washington,United States,98402,us
"Sand Pebbles A17 - Relax and unwind, Feel the sun on your shoulders and the ocean breezes in your hair, condo",Entire apartment,Carolina Beach,7.0,Good,1,0,334,34.0351727,-77.8935966,North Carolina,United States,28428,us
Snowbirds Retreat Walkable Destin Condo with View!,Entire apartment,Destin,9.5,Exceptional,2,0,183,30.3935337,-86.4957834,Florida,United States,32540,us
Thunder Island 75B condo,Entire apartment,"Midtown, Ocean City",8.5,Very good,1,0,429,38.3926679,-75.06488315,Maryland,United States,21842,us
Silverado I Building B Unit 204,Entire holiday home,Winter Park,8.6,Fabulous,2,0,163,28.5977707,-81.3510264,Florida,United States,32789,us
Charming Canyon Lake Cottage with Pool and BBQ Pit!,Entire holiday home,Canyon Lake,8.0,Very good,3,0,372,33.6836539,-117.262615,California,United States,92587,us
Boardwalk 2BR 3BA Condo by CozySuites,Entire apartment,Atlantic City,7.4,Good,5,0,240,39.3642852,-74.4229351,New Jersey,United States,08402,us
SeaCrest 511 condo,Entire apartment,Fort Walton Beach,,Exceptional,3,0,0,30.4057552,-86.618842,Florida,United States,32548,us
Greek Villa Vibes with Backyard - 1mi to Beach,Entire holiday home,Boynton Beach,8.6,Fabulous,3,0,0,26.5256179,-80.0666026,Florida,United States,33435,us
Luau I 7907,Entire apartment,"Miramar Beach, Destin",9.5,Exceptional,1,0,0,30.3776819,-86.3415734,Florida,United States,32550,us
Happy Bear #2053 by Big Bear Vacations,Entire holiday home,Big Bear Lake,,Exceptional,2,0,0,34.2440587,-116.91018,California,United States,92315,us
Newly Renovated Beach Condo with STUNNING Water Views! Monthly and Weekly Specials!,Entire holiday home,Carolina Beach,,Exceptional,4,0,0,34.0351727,-77.8935966,North Carolina,United States,28428,us
Sand of Time Cottage cottage,Entire holiday home,"East End, Galveston",,Exceptional,4,0,0,29.3046766,-94.7882922,Texas,United States,77550,us
539 Bay Street,Entire apartment,Traverse City,9.6,Exceptional,2,0,0,44.7606441,-85.6165301,Michigan,United States,49684,us
Cabool Cottage,Entire holiday home,Cabool,9.8,Exceptional,1,0,0,37.123941,-92.1012678,Missouri,United States,65689,us
Radiant Beach Block Condo Parking Patio,Entire apartment,Brigantine,,Exceptional,3,0,0,39.4101171,-74.3645906,New Jersey,United States,08203,us
HIB-C202 3 Pools Ocean View Free Tix 2BR,Entire apartment,Crescent Beach,7.7,Good,3,0,0,44.2380664,-64.4142153,Nova Scotia,Canada,B0R 1C0,ca
2BR Condo On The Boardwalk with 3 Baths CozySuites,Entire apartment,Atlantic City,7.0,Good,5,0,0,39.3642852,-74.4229351,New Jersey,United States,08402,us
Lazy Days Cottage - Amazing Views and Great Location! home,Entire holiday home,"East End, Galveston",8.0,Very good,4,0,0,29.3046766,-94.7882922,Texas,United States,77550,us
Bay Colony 773 - Upper,Entire apartment,Nisswa,9.5,Exceptional,4,0,0,46.5205224,-94.288609,Minnesota,United States,56468,us
2BR 3BA Beachfront Condo CozySuites at Showboat,Entire apartment,Atlantic City,8.2,Very good,5,0,0,39.3642852,-74.4229351,New Jersey,United States,08402,us
Inlet Reef 318 Destin Condo,Entire apartment,Destin,9.0,Superb,4,0,0,30.3935337,-86.4957834,Florida,United States,32540,us
Sandpiper Beachview Condos by Bender Vacation Rentals,Entire apartment,Gulf Shores,8.6,Fabulous,4,0,0,30.2711224,-87.6893826,Alabama,United States,36542,us
SeaCrest 413 condo,Entire apartment,Fort Walton Beach,8.0,Very good,3,0,0,30.4057552,-86.618842,Florida,United States,32548,us
Healing Hideaway by Pristine Properties,Entire apartment,Saint Joe Beach,9.0,Superb,1,0,0,29.902151,-85.3621418,Florida,United States,32456,us
Casa de las Palmas by Padre Getaways,Entire holiday home,South Padre Island,,Exceptional,3,0,0,26.1036887,-97.1646938,Texas,United States,78597,us
Unbelievable Condo Beach Block Parking,Entire holiday home,Brigantine,8.0,Very good,4,0,0,39.4101171,-74.3645906,New Jersey,United States,08203,us
Sunrise Village 101 Condo,Entire apartment,Gulf Shores,9.0,Superb,2,0,0,30.2711224,-87.6893826,Alabama,United States,36542,us
Breezy Oceanfront Panama Beach Condo with Pool Access,Entire apartment,Panama City Beach,8.5,Very good,2,0,0,30.1765914,-85.805386,Florida,United States,32408,us
Sea Fever - Newly renovated OCEANFRONT second floor condo! Sunrises and sweeping views! condo,Entire apartment,Carolina Beach,7.5,Good,1,1047,0,34.0351727,-77.8935966,North Carolina,United States,28428,us
Vista Pines-234 by Big Bear Vacations,Entire holiday home,Big Bear Lake,8.0,Very good,3,2154,0,34.2440587,-116.91018,California,United States,92315,us
Tuscany on Taneycomo Condo,Entire apartment,Branson,7.0,Good,2,614,0,36.6411357,-93.2175285,Missouri,United States,65616,us
Sandpiper Cove 1082 Destin Condo,Entire apartment,Destin,,Exceptional,4,746,0,30.3935337,-86.4957834,Florida,United States,32540,us
Bay Colony 766 - lower,Entire apartment,Nisswa,9.5,Exceptional,4,643,0,46.5205224,-94.288609,Minnesota,United States,56468,us
Reel'Em Inn Condo,Entire apartment,Branson,8.5,Very good,2,566,0,36.6411357,-93.2175285,Missouri,United States,65616,us
Redfish Cottage,Entire holiday home,Santa Rosa Beach,9.6,Exceptional,3,663,0,30.3466423,-86.2307992,Florida,United States,32459,us
Beachside Two 4214,Entire apartment,"Miramar Beach, Destin",7.5,Good,1,820,0,30.3776819,-86.3415734,Florida,United States,32550,us
Slow M'Ocean,Entire apartment,Gulf Shores,7.0,Good,3,882,0,30.2711224,-87.6893826,Alabama,United States,36542,us
Borders Lodge,Private suite,Beaver Creek,8.8,Fabulous,2,3395,0,39.6048786,-106.51500172410503,Colorado,United States,81260,us
Romantic Getaway - 2 BR Condo At Sugar Top Mountain With Mountain Views! condo,Entire apartment,Sugar Mountain,8.5,Very good,1,1524,0,44.2703396,-74.9599167,New York,United States,,us
Pathway to the Sea C202,Entire apartment,Corpus Christi,8.8,Fabulous,3,968,0,27.7635302,-97.4033191,Texas,United States,78404,us
Base Village Ski In-Out Luxury Condo #4375 Huge Hot Tub & Great Views - FREE Activities & Equipment Rentals Daily,Entire holiday home,Winter Park,7.0,Good,3,4280,0,28.5977707,-81.3510264,Florida,United States,32789,us
SeaCrest 509 condo,Entire apartment,Fort Walton Beach,9.0,Superb,3,685,0,30.4057552,-86.618842,Florida,United States,32548,us
SeaCrest 202 condo,Entire apartment,Fort Walton Beach,,Exceptional,3,787,0,30.4057552,-86.618842,Florida,United States,32548,us
Sea Palm 1D condo,Entire apartment,Fort Walton Beach,9.0,Superb,3,614,0,30.4057552,-86.618842,Florida,United States,32548,us
Luxury Pet Friendly Home In Houston Near All Downtown Attractions - 2707B,Entire apartment,Houston,8.5,Very good,3,555,0,29.7589382,-95.3676974,Texas,United States,77002,us
2 Blocks from Beach Parking,Entire apartment,Brigantine,7.0,Good,2,985,0,39.4101171,-74.3645906,New Jersey,United States,08203,us
South Bay By The Gulf 062 Townhouse,Entire holiday home,Destin,9.2,Superb,4,795,0,30.3935337,-86.4957834,Florida,United States,32540,us
Island Inn,Entire apartment,Oak Bluffs,8.3,Very good,4,759,0,41.4538523,-70.5684713,Massachusetts,United States,02557,us
Colony Club F3 condo,Entire apartment,Gulf Shores,8.0,Very good,2,336,0,30.2711224,-87.6893826,Alabama,United States,36542,us
SeaCrest 708 condo,Entire apartment,Fort Walton Beach,9.0,Superb,4,787,0,30.4057552,-86.618842,Florida,United States,32548,us
The Landmark Orcas Island,Entire apartment,Eastsound,8.8,Fabulous,2,0,0,48.696771,-122.9054625,Washington,United States,98245,us
Sugar Top Condos II,Entire apartment,Sugar Mountain,9.1,Superb,2,0,0,44.2703396,-74.9599167,New York,United States,,us
Moonridge Cottage-1817 by Big Bear Vacations,Entire holiday home,Big Bear Lake,8.0,Very good,2,0,0,34.2440587,-116.91018,California,United States,92315,us
The Palms at Seagrove,Entire apartment,Santa Rosa Beach,9.7,Exceptional,3,0,0,30.3466423,-86.2307992,Florida,United States,32459,us
Cozy Hollow - 1890 by Big Bear Vacations,Entire holiday home,Big Bear Lake,,Exceptional,3,0,0,34.2440587,-116.91018,California,United States,92315,us
Vivid Escape in Gulf Shores - Walk to the Beach!,Entire apartment,Gulf Shores,8.0,Very good,3,0,0,30.2711224,-87.6893826,Alabama,United States,36542,us
The Summit at Massanutten Resort by TripForth,Entire apartment,McGaheysville,8.6,Fabulous,4,0,0,38.3712399,-78.7322449,Virginia,United States,22840,us
Atol Quad #2 home,Entire holiday home,South Padre Island,,Exceptional,1,0,0,26.1036887,-97.1646938,Texas,United States,78597,us
The Palace at Kingston East,Entire apartment,Rexburg,9.9,Exceptional,2,0,408,43.8235163,-111.787022,Idaho,United States,83440,us
Island North 14C - 2nd row stunner! Relax in comfort after your days in the sun condo,Entire apartment,Carolina Beach,7.0,Good,1,0,257,34.0351727,-77.8935966,North Carolina,United States,28428,us
El Constante 208,Entire apartment,Corpus Christi,8.6,Fabulous,2,0,0,27.7635302,-97.4033191,Texas,United States,78404,us
Jumpin' Jack Frost,Entire holiday home,Lake Harmony,9.0,Superb,4,0,246,41.0605209,-75.5916339,Pennsylvania,United States,18624,us
Pinnacle,Entire apartment,Beech Mountain,7.1,Good,3,0,0,36.2090865,-81.8817963798302,North Carolina,United States,28604,us
108 West Morningside Townhouse,Entire apartment,South Padre Island,9.0,Superb,4,0,422,26.1036887,-97.1646938,Texas,United States,78597,us
SeaCrest 605 condo,Entire apartment,Fort Walton Beach,9.0,Superb,4,0,0,30.4057552,-86.618842,Florida,United States,32548,us
Live Oak Landing,2 entire bungalow,Freeport,9.1,Superb,2,0,0,42.2966861,-89.6212271,Illinois,United States,61032,us
River Romance,Entire holiday home,Sylva,8.1,Very good,3,0,0,35.3737111,-83.2259803,North Carolina,United States,28779,us
Barefoot Cottages #B10,Entire holiday home,Highland View,9.4,Superb,5,0,0,40.8817975,-96.743984,Nebraska,United States,68531,us
Smoky Mountain Moondance,Entire holiday home,Bryson City,9.7,Exceptional,1,0,0,35.4309291,-83.447381,North Carolina,United States,28713,us
Little River Resort,Entire apartment,Pinehurst,7.7,Good,5,0,0,30.1071543,-93.7746117,Texas,United States,77630,us
Unplugged Mountain Retreat,Entire holiday home,Ellijay,8.5,Very good,3,0,0,34.6950278,-84.4827394,Georgia,United States,30540,us
Pili Mai,Private suite,Kipu,9.5,Exceptional,4,0,0,21.9504052,-159.4211843,Hawaii,United States,96715,us
Sunset Penthouse Condo,Entire apartment,Branson,9.8,Exceptional,2,0,0,36.6411357,-93.2175285,Missouri,United States,65616,us
Island Royale P504 Condo,Entire apartment,Gulf Shores,9.5,Exceptional,3,0,0,30.2711224,-87.6893826,Alabama,United States,36542,us
Flaming Gorge Resort,2 private suite,Dutch John,8.0,Very good,2,0,0,40.9295478,-109.391282,Utah,United States,84023,us
Dolphin Point Condo 202A Condo,Entire apartment,Destin,9.2,Superb,4,0,0,30.3935337,-86.4957834,Florida,United States,32540,us
Luxury new Home/Museum/Med. Ctr/dwn twn*FAMILIES,Entire apartment,Houston,,Exceptional,3,0,0,29.7589382,-95.3676974,Texas,United States,77002,us
Holiday Surf & Racquet Club 510,Entire apartment,Destin,9.5,Exceptional,2,0,0,30.3935337,-86.4957834,Florida,United States,32540,us
South Bay Inn,Entire apartment,Anna Maria,8.5,Very good,4,0,0,6.7337014,-58.1342698,Demerara-Mahaica,Guyana,,gy
Catalina Creekside Cabin 372,Entire holiday home,Big Bear Lake,9.7,Exceptional,2,0,0,34.2440587,-116.91018,California,United States,92315,us
Hollywood Beach Tower by Capital Vacations,2 entire apartment,"Hollywood Beach, Hollywood",7.4,Good,2,0,0,26.0281452,-80.1142111,Florida,United States,33019,us
Beach House Condo Unit #302,Entire apartment,South Padre Island,8.0,Very good,3,0,0,26.1036887,-97.1646938,Texas,United States,78597,us
Holiday Surf & Racquet 614 Condo,Entire apartment,Destin,9.5,Exceptional,4,0,0,30.3935337,-86.4957834,Florida,United States,32540,us
Harbor Watch with Boat Slip condo,Entire apartment,Carolina Beach,8.0,Very good,1,0,0,34.0351727,-77.8935966,North Carolina,United States,28428,us
Bay Colony Unit 771 - Upper Level,Entire apartment,Nisswa,,Exceptional,1,0,0,46.5205224,-94.288609,Minnesota,United States,56468,us
Royal Oak 111 Condo,Entire apartment,Blowing Rock,8.3,Very good,3,0,0,36.1350245,-81.6777907,North Carolina,United States,28605,us
Hollowed Branch Hideaway Condo,Entire apartment,Branson,,Exceptional,2,0,0,36.6411357,-93.2175285,Missouri,United States,65616,us
Cabin #1 - Cedar Village cabin,Entire holiday home,Carp Lake,,Exceptional,3,0,0,45.697234,-84.750049,Michigan,United States,49718,us
Escape to Hilton Head! Two Bedroom Villa Just A Short Walk To Beach! villa,Entire vill,Hilton Head Island,8.0,Very good,4,0,0,32.1618488,-80.7512616,South Carolina,United States,29928,us
Village by the Beach P903K,Entire vill,Corpus Christi,9.0,Superb,6,0,0,27.7635302,-97.4033191,Texas,United States,78404,us
Charmer-King Bd/Soaker Tub/Air Hockey on Quiet St!,Entire holiday home,Kansas City,,Exceptional,5,0,0,39.100105,-94.5781416,Missouri,United States,,us
SeaCrest 211 condo,Entire apartment,Fort Walton Beach,9.5,Exceptional,3,0,0,30.4057552,-86.618842,Florida,United States,32548,us
Shoreline Towers 1063 Condo,Entire apartment,Destin,,Exceptional,3,0,382,30.3935337,-86.4957834,Florida,United States,32540,us
The Ingrid Apt #8 - Fresh and Simple 2bd with WiFi,Entire apartment,Hamilton,9.5,Exceptional,3,0,0,43.2560802,-79.8728583,Ontario,Canada,L8P 1H1,ca
Inlet Reef Condo 316 Condo,Entire apartment,Destin,9.5,Exceptional,4,0,423,30.3935337,-86.4957834,Florida,United States,32540,us
Mermaid Manor Cottage,Entire holiday home,"North Myrtle Beach, Myrtle Beach",,Exceptional,4,0,0,33.81478475,-78.67986991215972,South Carolina,United States,29582,us
Harbour Island 402L home,Entire apartment,"Boardwalk, Ocean City",,Exceptional,1,518,0,39.2679447,-74.586521,New Jersey,United States,08226,us
The Globe Inn,Private suite,East Greenville,9.1,Superb,1,766,0,40.4064882,-75.5018479,Pennsylvania,United States,18041,us
Massanutten's Regal Vistas by TripForth,Entire apartment,McGaheysville,8.8,Fabulous,1,1808,0,38.3712399,-78.7322449,Virginia,United States,22840,us
Colony Club U3,Entire apartment,Gulf Shores,9.0,Superb,2,606,0,30.2711224,-87.6893826,Alabama,United States,36542,us
The Anna Maria Island Beach Palms 7A,Entire apartment,Bradenton Beach,8.0,Very good,4,1305,0,27.4682554,-82.6995822,Florida,United States,34217,us
Restful hangout,Entire apartment,Bullhead City,,Exceptional,1,385,0,35.1477774,-114.568298,Arizona,United States,86429,us
Island Club of Hilton Head by TS,Entire apartment,Hilton Head Island,,Exceptional,3,2737,0,32.1618488,-80.7512616,South Carolina,United States,29928,us
The Landmark Orcas Island,Entire apartment,Eastsound,8.8,Fabulous,2,809,0,48.696771,-122.9054625,Washington,United States,98245,us
Sugar Top Condos II,Entire apartment,Sugar Mountain,9.1,Superb,2,985,0,44.2703396,-74.9599167,New York,United States,,us
Moonridge Cottage-1817 by Big Bear Vacations,Entire holiday home,Big Bear Lake,8.0,Very good,2,2697,0,34.2440587,-116.91018,California,United States,92315,us
The Palms at Seagrove,Entire apartment,Santa Rosa Beach,9.7,Exceptional,3,653,0,30.3466423,-86.2307992,Florida,United States,32459,us
Cozy Hollow - 1890 by Big Bear Vacations,Entire holiday home,Big Bear Lake,,Exceptional,3,2301,0,34.2440587,-116.91018,California,United States,92315,us
Vivid Escape in Gulf Shores - Walk to the Beach!,Entire apartment,Gulf Shores,8.0,Very good,3,509,0,30.2711224,-87.6893826,Alabama,United States,36542,us
The Summit at Massanutten Resort by TripForth,Entire apartment,McGaheysville,8.6,Fabulous,4,1420,0,38.3712399,-78.7322449,Virginia,United States,22840,us
The Palace at Kingston East,Entire apartment,Rexburg,9.9,Exceptional,2,1031,0,43.8235163,-111.787022,Idaho,United States,83440,us
Island North 14C - 2nd row stunner! Relax in comfort after your days in the sun condo,Entire apartment,Carolina Beach,7.0,Good,1,845,0,34.0351727,-77.8935966,North Carolina,United States,28428,us
El Constante 208,Entire apartment,Corpus Christi,8.6,Fabulous,2,2336,0,27.7635302,-97.4033191,Texas,United States,78404,us
Jumpin' Jack Frost,Entire holiday home,Lake Harmony,9.0,Superb,4,928,0,41.0605209,-75.5916339,Pennsylvania,United States,18624,us
Pinnacle,Entire apartment,Beech Mountain,7.1,Good,3,803,0,36.2090865,-81.8817963798302,North Carolina,United States,28604,us
108 West Morningside Townhouse,Entire apartment,South Padre Island,9.0,Superb,4,800,0,26.1036887,-97.1646938,Texas,United States,78597,us
SeaCrest 605 condo,Entire apartment,Fort Walton Beach,9.0,Superb,4,787,0,30.4057552,-86.618842,Florida,United States,32548,us
Live Oak Landing,2 entire bungalow,Freeport,9.1,Superb,2,1190,0,42.2966861,-89.6212271,Illinois,United States,61032,us
River Romance,Entire holiday home,Sylva,8.1,Very good,3,670,0,35.3737111,-83.2259803,North Carolina,United States,28779,us
Barefoot Cottages #B10,Entire holiday home,Highland View,9.4,Superb,5,439,279,40.8817975,-96.743984,Nebraska,United States,68531,us
Unique Balinese Home Just 30 Seconds to the Sand!,Entire holiday home,New Smyrna Beach,,Exceptional,3,1443,0,29.0258132,-80.9271271,Florida,United States,32168,us
Fairway Golf Condo Close to Beach and Shopping condo,Entire apartment,Calabash,7.9,Good,4,346,232,33.8907278,-78.5683446,North Carolina,United States,28467,us
Smoky Mountain Moondance,Entire holiday home,Bryson City,9.7,Exceptional,1,2004,286,35.4309291,-83.447381,North Carolina,United States,28713,us
Little River Resort,Entire apartment,Pinehurst,7.7,Good,5,787,464,30.1071543,-93.7746117,Texas,United States,77630,us
Unplugged Mountain Retreat,Entire holiday home,Ellijay,8.5,Very good,3,652,234,34.6950278,-84.4827394,Georgia,United States,30540,us
Pili Mai,Private suite,Kipu,9.5,Exceptional,4,1174,337,21.9504052,-159.4211843,Hawaii,United States,96715,us
Cozy Keyes Cottage,Entire holiday home,Winthrop,9.0,Superb,4,2376,0,42.3750976,-70.982827,Massachusetts,United States,02152,us
Luxury Holistic Oasis by Bayshore/Hyde Park/SoHo,Entire holiday home,Tampa,,Exceptional,2,1983,427,27.9477595,-82.458444,Florida,United States,,us
Cora Lee Gulfview by Padre Getaways,Entire apartment,South Padre Island,9.2,Superb,3,607,0,26.1036887,-97.1646938,Texas,United States,78597,us
Hungry Horse Cabin with Patio and Fire Pit-Near Glacier,Entire holiday home,Hungry Horse,7.5,Good,2,630,0,48.382564,-114.05596460903769,Montana,United States,59926,us
Nantucket Rainbow Cottages,Entire apartment,Destin,7.2,Good,4,324,262,30.3935337,-86.4957834,Florida,United States,32540,us
Beacon Quarters by KEES Vacations,Entire apartment,Corolla,8.6,Fabulous,3,563,0,36.3847464,-75.8286983,North Carolina,United States,27927,us
Gorgeous Oceanfront villa with Panoramic views!!!,Entire apartment,Avalon,9.2,Superb,3,2801,126,33.34221,-118.3272612,California,United States,90704,us
Whale - Watcher's Perch,Entire holiday home,Depoe Bay,8.0,Very good,2,390,654,44.8104233,-124.0620096,Oregon,United States,97341,us
Ocean Pines Resort by Capital Vacations,Entire apartment,Duck,7.6,Good,4,549,204,36.1700137,-75.7559261,North Carolina,United States,27949,us
View Of Red Mountain From 2 Br Condo Condo,Entire apartment,Crested Butte,9.0,Superb,1,3028,561,38.8698201,-106.984043,Colorado,United States,81224,us
Skyleaf,Entire apartment,Sugar Mountain,7.9,Good,3,1069,0,44.2703396,-74.9599167,New York,United States,,us
La Playita & Flip Flop Fun,Entire apartment,St. George Island,8.9,Fabulous,1,826,872,56.573651,-169.5836273671079,Alaska,United States,99591,us
Sandpiper Cove 3209 condo,Entire apartment,Destin,,Exceptional,4,750,156,30.3935337,-86.4957834,Florida,United States,32540,us
Great Rock Resort at Branson,Entire apartment,Branson,8.0,Very good,2,564,0,36.6411357,-93.2175285,Missouri,United States,65616,us
Wooded Views Seclude Condo,Entire apartment,Fernandina Beach,,Exceptional,3,1463,0,30.6696818,-81.4625919,Florida,United States,32034,us
Majestic Sun,Entire apartment,"Miramar Beach, Destin",7.9,Good,4,557,0,30.3776819,-86.3415734,Florida,United States,32550,us
Capri 1908,Entire apartment,"North Ocean City, Ocean City",8.3,Very good,5,571,0,38.430173100000005,-75.05890232007498,Maryland,United States,21842,us
Clearwater Beach Suites 106 condo,Entire apartment,Clearwater Beach,7.0,Good,4,1516,0,27.9774736,-82.8279313,Florida,United States,33767,us
Venus Lodges Condos,Entire apartment,Gatlinburg,8.4,Very good,3,853,0,35.714259,-83.5101638,Tennessee,United States,37738,us
Kure Beach Villa - Enjoy three levels of luxury! Outdoor pool and garage parking! townhouse,Entire holiday home,Kure Beach,,Exceptional,1,1047,0,33.9968399,-77.9072081,North Carolina,United States,28449,us
Seacrest 610 is a 2 BR Gulfside on Okaloosa Island condo,Entire apartment,Fort Walton Beach,9.2,Superb,3,847,0,30.4057552,-86.618842,Florida,United States,32548,us
The Beach Barn,Entire holiday home,Netarts,8.5,Very good,5,509,0,45.436403600000006,-123.94760187660575,Oregon,United States,97134,us
Edgewater Condo Unit #304,Entire apartment,South Padre Island,,Exceptional,3,1151,0,26.1036887,-97.1646938,Texas,United States,78597,us
Holiday Surf & Racquet Club 604R,Entire apartment,Destin,,Exceptional,3,1043,0,30.3935337,-86.4957834,Florida,United States,32540,us
Hidden Dunes,Entire apartment,"Miramar Beach, Destin",7.8,Good,4,570,0,30.3776819,-86.3415734,Florida,United States,32550,us
Village by the Beach P907K,Entire vill,Corpus Christi,8.0,Very good,0,1396,0,27.7635302,-97.4033191,Texas,United States,78404,us
Beach House IV,Entire apartment,"Miramar Beach, Destin",8.6,Fabulous,4,469,0,30.3776819,-86.3415734,Florida,United States,32550,us
Inlet Reef 516 Destin Condo,Entire apartment,Destin,,Exceptional,4,1110,0,30.3935337,-86.4957834,Florida,United States,32540,us
Destin On The Gulf 406 Condo,Entire apartment,Destin,9.2,Superb,3,1319,0,30.3935337,-86.4957834,Florida,United States,32540,us
Sandpiper Cove 2136 Destin Condo,Entire apartment,Destin,,Exceptional,3,1137,0,30.3935337,-86.4957834,Florida,United States,32540,us
The Cliffside Resort Condominiums,Entire bungalow,Greenport,8.5,Very good,4,1186,0,41.1034234,-72.3592777,New York,United States,11944,us
Glades View Condos,Entire apartment,Gatlinburg,8.2,Very good,3,781,0,35.714259,-83.5101638,Tennessee,United States,37738,us
Blue Surf 14B Townhouse,Entire holiday home,"Miramar Beach, Destin",9.0,Superb,2,0,0,30.3776819,-86.3415734,Florida,United States,32550,us
Braemar 503N,Entire apartment,"North Ocean City, Ocean City",7.8,Good,5,0,0,38.430173100000005,-75.05890232007498,Maryland,United States,21842,us
Venus 306 condo,Entire apartment,Fort Walton Beach,8.0,Very good,3,0,0,30.4057552,-86.618842,Florida,United States,32548,us
Sandpiper Cove 7201 Destin Condo,Entire apartment,Destin,9.7,Exceptional,4,0,0,30.3935337,-86.4957834,Florida,United States,32540,us
Constellation House 510,Entire apartment,"Midtown, Ocean City",8.0,Very good,7,0,0,38.3926679,-75.06488315,Maryland,United States,21842,us
"Great location, super cute & spacious Folly Vacation Apt B",Entire apartment,Folly Beach,9.7,Exceptional,3,0,0,32.6549967,-79.9406093,South Carolina,United States,29439,us
Southern Sands 303 Condo,Entire apartment,Gulf Shores,8.8,Fabulous,4,0,0,30.2711224,-87.6893826,Alabama,United States,36542,us
Beautiful Lakefront Condo - 5 Min Walk to Beach!,Entire apartment,Myrtle Beach,,Exceptional,3,0,0,33.6956461,-78.8900409,South Carolina,United States,29577,us
The Lighthouse Condos,Entire apartment,Gulf Shores,8.3,Very good,1,0,0,30.2711224,-87.6893826,Alabama,United States,36542,us
Ariel Dunes II,Private suite,"Miramar Beach, Destin",8.2,Very good,4,0,0,30.3776819,-86.3415734,Florida,United States,32550,us
Modern Gulf Shores Cottage with Pool and Beach Access!,Entire holiday home,Gulf Shores,,Exceptional,2,0,0,30.2711224,-87.6893826,Alabama,United States,36542,us
The Palms of Destin,Entire apartment,Destin,7.4,Good,4,0,0,30.3935337,-86.4957834,Florida,United States,32540,us
Lakefront Viking Oasis,Entire apartment,Big Bear Lake,,Exceptional,2,0,0,34.2440587,-116.91018,California,United States,92315,us
Outer Banks Motel - Village Accommodations,Entire holiday home,Buxton,8.0,Very good,6,0,0,53.2593422,-1.9100768,England,United Kingdom,SK17 6BZ,gb
Inlet Reef 204 Destin Condo,Entire apartment,Destin,8.0,Very good,4,0,0,30.3935337,-86.4957834,Florida,United States,32540,us
Sunrise Village 212 Condo,Entire apartment,Gulf Shores,8.0,Very good,3,0,0,30.2711224,-87.6893826,Alabama,United States,36542,us
Baskin's Creek Condos III,Entire apartment,Gatlinburg,9.0,Superb,3,0,0,35.714259,-83.5101638,Tennessee,United States,37738,us
El Constante 236,Entire apartment,Corpus Christi,,Exceptional,3,0,0,27.7635302,-97.4033191,Texas,United States,78404,us
East Pass Towers 305 Condo,Entire apartment,Destin,9.5,Exceptional,3,0,0,30.3935337,-86.4957834,Florida,United States,32540,us
Village by the Beach L824K,Entire vill,Corpus Christi,,Exceptional,3,0,0,27.7635302,-97.4033191,Texas,United States,78404,us
Village of Winnipesaukee,Entire apartment,Laconia,8.2,Very good,5,0,0,43.5278546,-71.470351,New Hampshire,United States,03246,us
Baskins Creek Condos II,Entire apartment,Gatlinburg,9.1,Superb,3,0,0,35.714259,-83.5101638,Tennessee,United States,37738,us
Atlantic Winds Condos,Private suite,"North Myrtle Beach, Myrtle Beach",8.2,Very good,3,0,0,33.81478475,-78.67986991215972,South Carolina,United States,29582,us
Beary Charming,Entire chalet,Gatlinburg,9.1,Superb,2,2672,0,35.714259,-83.5101638,Tennessee,United States,37738,us
Coastal Condo with Pool Access - Walk to Apache Pier,Entire holiday home,Myrtle Beach,,Exceptional,2,349,0,33.6956461,-78.8900409,South Carolina,United States,29577,us
Sunswept 203 Condo,Entire apartment,Orange Beach,,Exceptional,3,695,0,30.282839799999998,-87.62460710389821,Alabama,United States,36561,us
Crystal Sands Condominiums,Entire apartment,Destin,8.6,Fabulous,4,464,0,30.3935337,-86.4957834,Florida,United States,32540,us
Barefoot Cottages #B16,Entire holiday home,Highland View,,Exceptional,3,442,0,40.8817975,-96.743984,Nebraska,United States,68531,us
Lake Texoma Cabin - 1 Mi to Park and Boat Ramp,Entire holiday home,Willow Spring,9.0,Superb,2,352,0,34.6700217,-112.863239,Arizona,United States,,us
Horseshoe Bay Haven,Entire holiday home,Horseshoe Bay,8.5,Very good,4,605,0,30.5442091,-98.3669797,Texas,United States,78657,us
Vacation house in lake Isabella town,Entire holiday home,Lake Isabella,8.0,Very good,1,498,0,35.6132276,-118.4777199,California,United States,93240,us
Baskin's Creek Condos IV,Entire apartment,Gatlinburg,8.8,Fabulous,3,1476,0,35.714259,-83.5101638,Tennessee,United States,37738,us
Crystal Shores 1403 Condo,Entire apartment,Gulf Shores,,Exceptional,2,467,0,30.2711224,-87.6893826,Alabama,United States,36542,us
Sunset Breeze #4,Entire holiday home,Dauphin Island,7.0,Good,5,424,0,30.2542022,-88.1124817,Alabama,United States,36528,us
Inlet Reef 102 Destin Condo,Entire apartment,Destin,9.3,Superb,4,1546,0,30.3935337,-86.4957834,Florida,United States,32540,us
Inlet Reef 605 Condo Condo,Entire apartment,Destin,,Exceptional,3,1504,0,30.3935337,-86.4957834,Florida,United States,32540,us
Holiday Surf & Racquet Club 718,Entire apartment,Destin,,Exceptional,2,1042,0,30.3935337,-86.4957834,Florida,United States,32540,us
Holiday Surf & Racquet Club 324,Entire apartment,Destin,,Exceptional,3,1042,0,30.3935337,-86.4957834,Florida,United States,32540,us
RV Adventure - Private river access a short walk away!,Entire holiday home,Canyon Lake,9.3,Superb,4,359,0,33.6836539,-117.262615,California,United States,92587,us
ARTSY FLORIDIAN HOME a hidden gem a plain sight!,Entire apartment,North Miami Beach,,Exceptional,3,3338,0,25.9331488,-80.1625463,Florida,United States,33162,us
Ocean Reef Condos,Entire apartment,Gulf Shores,8.2,Very good,5,356,0,30.2711224,-87.6893826,Alabama,United States,36542,us
Destin On The Gulf 407 Condo,Entire apartment,Destin,8.5,Very good,3,1319,0,30.3935337,-86.4957834,Florida,United States,32540,us
Inlet Reef 205 Destin Apts,Entire apartment,Destin,9.0,Superb,4,0,0,30.3935337,-86.4957834,Florida,United States,32540,us
Destin On The Gulf 505 Condo,Entire apartment,Destin,,Exceptional,3,0,0,30.3935337,-86.4957834,Florida,United States,32540,us
Inlet Reef Condo 603 Condo,Entire apartment,Destin,8.0,Very good,3,0,0,30.3935337,-86.4957834,Florida,United States,32540,us
Sand Dollar 14 Condo,Entire apartment,Gulf Shores,,Exceptional,2,0,0,30.2711224,-87.6893826,Alabama,United States,36542,us
Sterling Reef,Entire apartment,Panama City Beach,8.1,Very good,3,0,0,30.1765914,-85.805386,Florida,United States,32408,us
The Beach Club Resort and Spa II,Entire apartment,Gulf Shores,8.6,Fabulous,4,0,0,30.2711224,-87.6893826,Alabama,United States,36542,us
Seychelles Beach Resort IV,Entire apartment,Panama City Beach,8.5,Very good,3,0,0,30.1765914,-85.805386,Florida,United States,32408,us
Island Sunrise,Entire apartment,Gulf Shores,8.5,Very good,3,0,0,30.2711224,-87.6893826,Alabama,United States,36542,us
Villa Signature,Entire apartment,"North Scottsdale, Scottsdale",9.6,Exceptional,3,0,0,33.49315465,-111.92078962182588,Arizona,United States,85251,us
Queens Grant,Entire apartment,Hilton Head Island,7.8,Good,1,0,0,32.1618488,-80.7512616,South Carolina,United States,29928,us
Jade East Condominiums,Private suite,Destin,8.0,Very good,4,0,0,30.3935337,-86.4957834,Florida,United States,32540,us
Ocean View Condo with Pool and Golf Course Access,Entire apartment,Ocean View,,Exceptional,2,0,0,38.5451122,-75.0890709,Delaware,United States,19770,us
Lakefront Beachview 2BR Condo Sleep 6 Close to Boardwalk,Entire apartment,Carolina Beach,9.3,Superb,3,0,0,34.0351727,-77.8935966,North Carolina,United States,28428,us
Michaels Surfside Cabanas,Entire apartment,Clearwater Beach,9.0,Superb,2,0,0,27.9774736,-82.8279313,Florida,United States,33767,us
"Beautiful Views! Jacuzzi, Indoor Outdoor Fireplace, Steps to Lake Estes",Entire holiday home,Estes Park,9.0,Superb,4,0,0,40.369766,-105.54968963482818,Colorado,United States,80517,us
SeaCrest 604 condo,Entire apartment,Fort Walton Beach,8.4,Very good,3,0,0,30.4057552,-86.618842,Florida,United States,32548,us
Seaside Escape Less Than 1 Mi to Cape May Public Beach,Entire apartment,West Cape May,9.0,Superb,3,0,0,38.9387236,-74.9418404,New Jersey,United States,08204,us
Village by the Gulf,Private suite,Gulf Shores,8.3,Very good,4,0,0,30.2711224,-87.6893826,Alabama,United States,36542,us
"Mermaid House Bar,Sea-Deck,30' GLASS WALL,HOT TUB, E-BIKE",Entire holiday home,Onset,,Exceptional,5,0,0,41.7417714,-70.6578104,Massachusetts,United States,02538,us
Beach House V,Entire apartment,"Miramar Beach, Destin",8.3,Very good,4,0,0,30.3776819,-86.3415734,Florida,United States,32550,us
Riverside Escape & Roaring Romance,Entire apartment,Gatlinburg,9.1,Superb,2,0,0,35.714259,-83.5101638,Tennessee,United States,37738,us
Buck's Hideout,Entire holiday home,Bridgton,9.2,Superb,4,0,0,44.055025,-70.713501,Maine,United States,04009,us
Short Walk to the Beach Condo,Entire apartment,Fernandina Beach,,Exceptional,3,1625,453,30.6696818,-81.4625919,Florida,United States,32034,us
Atlantic View Tropical Condo,Entire apartment,Fernandina Beach,8.0,Very good,3,1625,0,30.6696818,-81.4625919,Florida,United States,32034,us
Surf Side Shores 1405 Condo,Entire apartment,Gulf Shores,9.0,Superb,3,609,0,30.2711224,-87.6893826,Alabama,United States,36542,us
Rustic Mountain Cabin,Entire holiday home,Ellijay,8.6,Fabulous,4,806,382,34.6950278,-84.4827394,Georgia,United States,30540,us
O'Brien's Oasis,Entire holiday home,Miramonte,9.5,Exceptional,2,624,0,36.6924476,-119.0523321,California,United States,93641,us
Sea Breeze 318 Condo,Entire apartment,Gulf Shores,,Exceptional,2,336,0,30.2711224,-87.6893826,Alabama,United States,36542,us
Inlet Reef 213 Destin Condo,Entire apartment,Destin,8.0,Very good,3,1285,274,30.3935337,-86.4957834,Florida,United States,32540,us
Dolphin Point Condo 103B Condo,Entire apartment,Destin,,Exceptional,3,775,305,30.3935337,-86.4957834,Florida,United States,32540,us
Casa Del Mar Beachfront II,Entire holiday home,"West End, Galveston",7.9,Good,4,303,0,29.14535815,-95.04689286859056,Texas,United States,77554,us
Oceanfront White Stone Cottage with Private Beach!,Entire holiday home,White Stone,7.7,Good,5,0,0,37.6484751,-76.3891188,Virginia,United States,22578,us
Gulf Place Cabanas,Entire apartment,Santa Rosa Beach,8.4,Very good,3,0,0,30.3466423,-86.2307992,Florida,United States,32459,us
Club Regency at Regency Towers,Private suite,"The Market Common, Myrtle Beach",8.9,Fabulous,5,0,0,33.6706705,-78.94021322362671,South Carolina,United States,29577,us
Mountain Roots Lodging,Entire apartment,Big Meadows,8.7,Fabulous,1,0,0,38.5265132,-78.4397292,Virginia,United States,,us
Laketown Wharf IV,Entire apartment,Panama City Beach,7.5,Good,4,0,0,30.1765914,-85.805386,Florida,United States,32408,us
La Santorini del Sur,Entire apartment,South Padre Island,7.9,Good,5,0,0,26.1036887,-97.1646938,Texas,United States,78597,us
Amalfi Coast A204,Entire apartment,"Miramar Beach, Destin",8.4,Very good,4,0,0,30.3776819,-86.3415734,Florida,United States,32550,us
Ocean Villa,Entire apartment,Panama City Beach,8.2,Very good,3,0,0,30.1765914,-85.805386,Florida,United States,32408,us
Wild Irishman 1043,Entire holiday home,"West Keystone, Keystone",9.0,Superb,4,0,0,39.60193325,-105.9827933332479,Colorado,United States,80435,us
Redfish Village Condos,Entire apartment,Santa Rosa Beach,8.8,Fabulous,3,0,0,30.3466423,-86.2307992,Florida,United States,32459,us
Cabin in the Gap,Entire holiday home,Bryson City,8.3,Very good,2,0,0,35.4309291,-83.447381,North Carolina,United States,28713,us
Tidewater Beach Resort VIII,Entire apartment,Panama City Beach,8.0,Very good,4,0,0,30.1765914,-85.805386,Florida,United States,32408,us
"Stroll to Slopes, Village Area, Ski in-out MtLodge 304",Entire apartment,Snowshoe,7.9,Good,4,0,0,38.4128243,-79.9964421,West Virginia,United States,26209,us
River Place Condos,Entire apartment,Pigeon Forge,8.9,Fabulous,1,0,0,35.7884241,-83.5543329,Tennessee,United States,37863,us
Beach Cabin Getaway,Entire holiday home,Rockaway Beach,8.5,Very good,4,0,0,45.613598,-123.943147,Oregon,United States,97136,us
Sonder at 549 Peachtree,Private suite,"Downtown Atlanta, Atlanta",7.5,Good,3,0,0,33.7543408,-84.3870791,Georgia,United States,30303,us
Sisters Downtown 1930s Cottage,Entire holiday home,Sisters,8.2,Very good,4,0,0,44.290948,-121.5492516,Oregon,United States,97759,us
TWO BEDROOM HOUSE WITH FREE PARKING,Entire apartment,Lorain,8.0,Very good,1,0,0,41.4673238,-82.1781904,Ohio,United States,44052,us
Large Patio with Ocean Views Beach Block Parking Unit 3,Entire apartment,Ventnor City,,Exceptional,4,0,0,39.3405045,-74.4773916,New Jersey,United States,08406,us
Peaceful Providence Guesthouse,Entire holiday home,Luckenbach,7.6,Good,2,676,245,50.7041081,7.8336938,Rheinland-Pfalz,Deutschland,57629,de
Crystal Tower Condominiums,Entire apartment,Gulf Shores,8.3,Very good,3,381,342,30.2711224,-87.6893826,Alabama,United States,36542,us
Majestic Beach Resort,Entire apartment,Panama City Beach,7.8,Good,3,427,334,30.1765914,-85.805386,Florida,United States,32408,us
Tidewater Beach Resort XI,Entire apartment,Panama City Beach,7.7,Good,4,330,0,30.1765914,-85.805386,Florida,United States,32408,us
La Vista Blanc,Entire holiday home,Mammoth Lakes,9.2,Superb,2,1643,272,37.6432525,-118.9668509,California,United States,93546,us
Island Beach & Racquet Club II,Entire apartment,Atlantic Beach,8.3,Very good,1,324,286,40.5886547,-73.7288791,New York,United States,11509,us
Blairsville Cottage Less Than 1 Mi to Nottely Lake!,Entire holiday home,Blairsville,9.0,Superb,5,748,417,34.8759067,-83.958371,Georgia,United States,30514,us
Terraces,Entire holiday home,"Telluride Mountain Village, Telluride",9.7,Exceptional,3,3328,223,37.91239469999999,-107.83910733019943,Colorado,United States,81435,us
Sunrise Beach Resort III,Entire apartment,Panama City Beach,8.7,Fabulous,4,349,244,30.1765914,-85.805386,Florida,United States,32408,us
"2nd level duplex, Downtown Houston near Toyota Center, Smoking allowed on Balcony!",Entire apartment,Houston,8.6,Fabulous,3,392,281,29.7589382,-95.3676974,Texas,United States,77002,us
Ampersand Bay Resort,Entire bungalow,Saranac Lake,8.6,Fabulous,4,2439,155,44.329497,-74.131279,New York,United States,12983,us
Crystal Shores West Condos,Entire apartment,Gulf Shores,9.1,Superb,3,463,0,30.2711224,-87.6893826,Alabama,United States,36542,us
Su Casa at Venice Beach,Entire apartment,"Venice Beach, Los Angeles",8.0,Very good,2,1424,271,33.97996005,-118.46878181253348,California,United States,90292,us
"NEW Folly Vacation Listing, Perfect Purple Palace Apt A",Entire apartment,Folly Beach,9.4,Superb,3,1824,331,32.6549967,-79.9406093,South Carolina,United States,29439,us
The Beach Club Resort and Spa,Entire apartment,Gulf Shores,8.6,Fabulous,1,477,128,30.2711224,-87.6893826,Alabama,United States,36542,us
Stone Fence Resort,2 entire apartment,Ogdensburg,7.6,Good,2,1348,238,44.694285,-75.486374,New York,United States,13669,us
Costa Crinks at Aransas Princess,Entire apartment,Port Aransas,9.0,Superb,4,0,0,27.8332175,-97.0618324,Texas,United States,78373,us
The Lodge at Steamboat by Vacasa,Entire apartment,Steamboat Springs,8.8,Fabulous,4,0,0,40.4848003,-106.8317359,Colorado,United States,80487,us
Beachside condo with heated pool,Entire apartment,Gulf Shores,,Exceptional,3,0,0,30.2711224,-87.6893826,Alabama,United States,36542,us
Beach Retreat,Entire apartment,"Downtown Myrtle Beach, Myrtle Beach",7.2,Good,3,0,0,33.6945202,-78.8835706,South Carolina,United States,,us
Beachview,Entire apartment,Navarre,8.4,Very good,4,0,0,42.61254875,-1.830787673361753,Navarra - Nafarroa,España,31150,es
Sterling Breeze 4,Entire apartment,Panama City Beach,8.6,Fabulous,3,0,0,30.1765914,-85.805386,Florida,United States,32408,us
Hillside Haven,Entire holiday home,Blue Ridge,8.5,Very good,3,0,0,33.2992786,-96.4021168,Texas,United States,75424,us
Beach House I,Entire apartment,"Miramar Beach, Destin",8.0,Very good,4,0,0,30.3776819,-86.3415734,Florida,United States,32550,us
Frontdesk Osborn Apts Downtown Cleveland,Entire apartment,"Downtown Cleveland, Cleveland",8.6,Fabulous,2,0,0,35.14023735,-97.39468693478696,Oklahoma,United States,73068,us
Regency Isle,Entire apartment,Orange Beach,8.3,Very good,3,0,0,30.282839799999998,-87.62460710389821,Alabama,United States,36561,us
Red Bird Cottage,Entire holiday home,Wimberley,,Exceptional,2,0,0,29.9976807,-98.0987896,Texas,United States,78676,us
Peaceful Providence Guesthouse,Entire holiday home,Luckenbach,7.6,Good,2,0,310,50.7041081,7.8336938,Rheinland-Pfalz,Deutschland,57629,de
Crystal Tower Condominiums,Entire apartment,Gulf Shores,8.3,Very good,3,0,262,30.2711224,-87.6893826,Alabama,United States,36542,us
Majestic Beach Resort,Entire apartment,Panama City Beach,7.8,Good,3,0,214,30.1765914,-85.805386,Florida,United States,32408,us
Tidewater Beach Resort XI,Entire apartment,Panama City Beach,7.7,Good,4,0,0,30.1765914,-85.805386,Florida,United States,32408,us
La Vista Blanc,Entire holiday home,Mammoth Lakes,9.2,Superb,2,0,226,37.6432525,-118.9668509,California,United States,93546,us
Island Beach & Racquet Club II,Entire apartment,Atlantic Beach,8.3,Very good,1,0,214,40.5886547,-73.7288791,New York,United States,11509,us
Blairsville Cottage Less Than 1 Mi to Nottely Lake!,Entire holiday home,Blairsville,9.0,Superb,5,0,0,34.8759067,-83.958371,Georgia,United States,30514,us
Terraces,Entire holiday home,"Telluride Mountain Village, Telluride",9.7,Exceptional,3,0,356,37.91239469999999,-107.83910733019943,Colorado,United States,81435,us
Sunrise Beach Resort III,Entire apartment,Panama City Beach,8.7,Fabulous,4,0,268,30.1765914,-85.805386,Florida,United States,32408,us
"2nd level duplex, Downtown Houston near Toyota Center, Smoking allowed on Balcony!",Entire apartment,Houston,8.6,Fabulous,3,0,0,29.7589382,-95.3676974,Texas,United States,77002,us
Ampersand Bay Resort,Entire bungalow,Saranac Lake,8.6,Fabulous,4,0,0,44.329497,-74.131279,New York,United States,12983,us
Crystal Shores West Condos,Entire apartment,Gulf Shores,9.1,Superb,3,0,0,30.2711224,-87.6893826,Alabama,United States,36542,us
Su Casa at Venice Beach,Entire apartment,"Venice Beach, Los Angeles",8.0,Very good,2,0,0,33.97996005,-118.46878181253348,California,United States,90292,us
"NEW Folly Vacation Listing, Perfect Purple Palace Apt A",Entire apartment,Folly Beach,9.4,Superb,3,0,0,32.6549967,-79.9406093,South Carolina,United States,29439,us
The Beach Club Resort and Spa,Entire apartment,Gulf Shores,8.6,Fabulous,1,0,0,30.2711224,-87.6893826,Alabama,United States,36542,us
Stone Fence Resort,2 entire apartment,Ogdensburg,7.6,Good,2,0,0,44.694285,-75.486374,New York,United States,13669,us
Kimberlys Hope Clark Apt on Farm with Pool Access,Entire apartment,Clark,9.0,Superb,3,0,0,39.3260541,-87.7838526,Illinois,United States,62442,us
Designer Downtown Los Angeles Loft,Entire apartment,"Downtown Los Angeles, Los Angeles",7.8,Good,1,0,0,34.0428494,-118.2476732,California,United States,90013,us
Susitna Suites,Entire apartment,Wasilla,9.4,Superb,2,0,0,61.5824216,-149.442563,Alaska,United States,99654,us
Timber Run II,Entire apartment,Steamboat Springs,8.6,Fabulous,3,0,0,40.4848003,-106.8317359,Colorado,United States,80487,us
Chelan Resort Suites,Entire apartment,Chelan,7.3,Good,3,0,0,43.3448259,0.5440997,Occitanie,France,32140,fr
Enchanted,Entire holiday home,Sevierville,7.6,Good,5,0,0,35.8667112,-83.5620518,Tennessee,United States,37862,us
FRONTDESK 2063 East 4th Street Apts Downtown Cleveland,Entire apartment,"Downtown Cleveland, Cleveland",8.6,Fabulous,2,0,0,35.14023735,-97.39468693478696,Oklahoma,United States,73068,us
Daytona Beach Shores Condos,Entire apartment,Daytona Beach Shores,7.8,Good,4,0,0,29.1760933,-80.9828323,Florida,United States,32118,us
Island Club 1,Entire apartment,Hilton Head Island,9.0,Superb,3,0,0,32.1618488,-80.7512616,South Carolina,United States,29928,us
El Capitan,Entire apartment,"Boardwalk, Ocean City",7.4,Good,4,0,0,39.2679447,-74.586521,New Jersey,United States,08226,us
Tesla's Lake Escape,Entire holiday home,Onalaska,8.9,Fabulous,3,476,279,30.805746,-95.1163261,Texas,United States,77360,us
Liberty Creek,Entire holiday home,Fredericksburg,9.2,Superb,2,1204,0,38.3031837,-77.4605399,Virginia,United States,22401,us
Shores of Panama Beach,Entire apartment,Panama City Beach,7.7,Good,4,427,507,30.1765914,-85.805386,Florida,United States,32408,us
Bear Cove Falls,Entire holiday home,Pigeon Forge,7.8,Good,1,1132,114,35.7884241,-83.5543329,Tennessee,United States,37863,us
Cute 2 bdrm Condo walking distance to Weirs Beach!,Entire apartment,Laconia,9.5,Exceptional,3,908,154,43.5278546,-71.470351,New Hampshire,United States,03246,us
Sterling Reef 2,Entire apartment,Panama City Beach,8.1,Very good,3,373,413,30.1765914,-85.805386,Florida,United States,32408,us
Windancer Condominiums,Entire apartment,"Miramar Beach, Destin",7.9,Good,4,474,212,30.3776819,-86.3415734,Florida,United States,32550,us
"Cozy Crestline Cabin, Close to Lakes, Parks!",Entire holiday home,Crestline,,Exceptional,3,1348,237,34.2495525,-117.29389561188812,California,United States,92325,us
A Relaxing Getaway-A Backwoods Cabin SolDuc River,Entire holiday home,Beaver,9.5,Exceptional,2,793,292,40.6916624,-80.3709999,Pennsylvania,United States,15009,us
Fiddlers Cove,Entire apartment,Hilton Head Island,8.3,Very good,4,304,193,32.1618488,-80.7512616,South Carolina,United States,29928,us
Park Pointe Condominiums,Entire apartment,Chelan,7.4,Good,5,435,0,43.3448259,0.5440997,Occitanie,France,32140,fr
Snake River Roadhouse by KABINO,Private suite,Swan Valley,7.1,Good,2,610,0,43.456028,-111.341615,Idaho,United States,83449,us
The Pink Flamingo,Entire holiday home,"East End, Galveston",7.8,Good,4,501,286,29.3046766,-94.7882922,Texas,United States,77550,us
Wild Reindeer *New Cabin 5min From Parkway*HOTTUB,Entire holiday home,Sevierville,7.4,Good,3,1785,219,35.8667112,-83.5620518,Tennessee,United States,37862,us
Treehouse,Entire holiday home,Pigeon Forge,8.7,Fabulous,3,1572,441,35.7884241,-83.5543329,Tennessee,United States,37863,us
Cabin with Mountain View,Entire holiday home,Bryson City,7.0,Good,3,536,275,35.4309291,-83.447381,North Carolina,United States,28713,us
Sunrise Beach Resort II,Entire apartment,Panama City Beach,7.6,Good,3,365,234,30.1765914,-85.805386,Florida,United States,32408,us
Frisco Apartments,Entire apartment,Frisco,9.0,Superb,5,1561,202,33.1506744,-96.8236116,Texas,United States,75034,us
Sonder The Palace,Private suite,"Design District, Miami",7.7,Good,3,1273,273,25.81466,-80.1914321,Florida,United States,33137,us
Phoenix on the Bay II,Entire apartment,Orange Beach,8.6,Fabulous,3,498,0,30.282839799999998,-87.62460710389821,Alabama,United States,36561,us
Blue Lodge,Entire holiday home,Hesston,9.4,Superb,3,595,0,38.1385315,-97.4314857,Kansas,United States,67062,us
Romar Beach Condos,Entire apartment,Gulf Shores,8.3,Very good,3,356,0,30.2711224,-87.6893826,Alabama,United States,36542,us
La Isla Apartments,Entire apartment,South Padre Island,8.8,Fabulous,4,276,0,26.1036887,-97.1646938,Texas,United States,78597,us
Magnolia Pointe,Entire holiday home,Myrtle Beach,8.6,Fabulous,2,360,0,33.6956461,-78.8900409,South Carolina,United States,29577,us
Tropic Isle,Entire apartment,Gulf Shores,8.5,Very good,4,454,477,30.2711224,-87.6893826,Alabama,United States,36542,us
Cedar Lodge,Entire apartment,Pigeon Forge,8.2,Very good,5,1212,247,35.7884241,-83.5543329,Tennessee,United States,37863,us
Object Hotel 2BR Room 2G,Private suite,Bisbee,7.8,Good,2,1356,499,31.4481547,-109.928408,Arizona,United States,85603,us
Her Majesty's Way,Entire chalet,Gatlinburg,9.3,Superb,4,2291,208,35.714259,-83.5101638,Tennessee,United States,37738,us
Seacrest,Entire apartment,Fort Walton Beach,8.2,Very good,3,377,441,30.4057552,-86.618842,Florida,United States,32548,us
Pyramid,Private suite,"North Ocean City, Ocean City",7.3,Good,4,339,262,38.430173100000005,-75.05890232007498,Maryland,United States,21842,us
Ski Time Square Condos,Entire apartment,Steamboat Springs,7.3,Good,1,1903,214,40.4848003,-106.8317359,Colorado,United States,80487,us
Pyramid IV,Private suite,"North Ocean City, Ocean City",7.4,Good,4,248,334,38.430173100000005,-75.05890232007498,Maryland,United States,21842,us
Rustic Riverfront Cabin about 5 Miles to Ruidoso Downs!,Entire holiday home,Ruidoso,8.3,Very good,2,1488,329,33.3315804,-105.6730991,New Mexico,United States,88345,us
Palacio Condominiums I,Entire apartment,Perdido Key,8.2,Very good,3,563,334,30.26751325,-87.59136205863628,Alabama,United States,36561,us
Every stay gets a set of New Sheets and Towels,Entire apartment,"Downtown Atlanta, Atlanta",9.0,Superb,3,687,334,33.7543408,-84.3870791,Georgia,United States,30303,us
Tybee Wishes,Entire apartment,Tybee Island,8.3,Very good,1,565,310,31.9987321,-80.8469427,Georgia,United States,31328,us
Luxury Condos at Thousand Hills - Branson -Beautifully Remodeled,Entire apartment,Branson,9.4,Superb,3,729,0,36.6411357,-93.2175285,Missouri,United States,65616,us
The Beach Club Resort and Spa V,Entire apartment,Gulf Highlands,9.0,Superb,2,478,238,30.2313147,-87.8797145,Alabama,United States,,us
Coral Springs Resort,Entire apartment,Washington,7.3,Good,3,1155,386,38.8950368,-77.0365427,District of Columbia,United States,20500,us
Sanibel Condominiums,Entire apartment,Gulf Shores,7.9,Good,2,418,0,30.2711224,-87.6893826,Alabama,United States,36542,us
Centerpoint Trail Cabin- Perfect hiking just steps away,Entire chalet,Compton,8.6,Fabulous,8,724,238,33.894927,-118.226624,California,United States,90220,us
Mighty Pines,Entire holiday home,Lake Arrowhead,,Exceptional,2,2444,405,34.2585615,-117.18300401517857,California,United States,92352,us
Gulf View II,Entire apartment,"Miramar Beach, Destin",7.3,Good,4,346,0,30.3776819,-86.3415734,Florida,United States,32550,us
Sonder The Schaeffer,Private suite,"French Quarter (Vieux Carré), New Orleans",8.0,Very good,2,972,0,29.9595056,-90.0655668,Louisiana,United States,70116,us
Mutiny Sands Waterview,Entire holiday home,Freeland,8.7,Fabulous,2,704,0,46.6775057,-63.9629222,Prince Edward Island,Canada,,ca
Chalet of Dreams,Entire holiday home,Pigeon Forge,8.3,Very good,3,1332,0,35.7884241,-83.5543329,Tennessee,United States,37863,us
"Designed 2BR with Balcony, Pool & Gym",Entire apartment,Bradenton,8.9,Fabulous,1,887,0,27.4989278,-82.5748194,Florida,United States,34205,us
Magnificent views in Murphy,Entire apartment,Murphy,9.3,Superb,1,595,0,33.0151208,-96.6130478,Texas,United States,75094,us
Newly Remodeled Private Luxe Casita W Ocean Views,Entire apartment,Cardiff-by-the-Sea,,Exceptional,3,2312,0,33.0220155,-117.2803463,California,United States,92007,us
Gulf Dunes,Entire apartment,Fort Walton Beach,7.7,Good,4,447,0,30.4057552,-86.618842,Florida,United States,32548,us
Oceania Plaza & Suites,Entire apartment,New Smyrna Beach,7.9,Good,2,746,0,29.0258132,-80.9271271,Florida,United States,32168,us
Emerald Isle #1607,Entire apartment,Pensacola Beach,,Exceptional,4,865,0,30.3342348,-87.1350979,Florida,United States,32561,us
Bayou Vue,Entire holiday home,Pensacola,7.0,Good,3,433,0,30.421309,-87.2169149,Florida,United States,32503,us
Nightingale,Entire apartment,Saugatuck,8.0,Very good,1,1118,0,42.6549244,-86.2040552,Michigan,United States,49453,us
Bright stylish &great location 2bd Apartment,Entire apartment,"Philadelphia City Center, Philadelphia",8.1,Very good,3,401,0,39.9525541,-75.15202163851058,Pennsylvania,United States,19106,us
420Waldburg A · Modern Apt with Southern Charm Blocks from Forsyth,Entire apartment,"Downtown Savannah, Savannah",8.9,Fabulous,3,1529,0,32.075281950000004,-81.0984566550849,Georgia,United States,31401,us
Tidewater Beach Resort XII,Entire apartment,Panama City Beach,7.2,Good,4,456,0,30.1765914,-85.805386,Florida,United States,32408,us
St Aug Ocean and Racquet,Entire apartment,St. Augustine,8.0,Very good,3,596,0,29.8946952,-81.3145395,Florida,United States,32084,us
The Aria II @ Tuscana Resort,Entire apartment,Kissimmee,7.0,Good,4,936,0,28.2918995,-81.4075838,Florida,United States,34741,us
Sapphire Condominiums,Entire apartment,South Padre Island,8.8,Fabulous,1,645,0,26.1036887,-97.1646938,Texas,United States,78597,us
Mountain Escape - Endless Views - 2 Pools/Hot Tub,Entire apartment,Gatlinburg,7.7,Good,3,1423,0,35.714259,-83.5101638,Tennessee,United States,37738,us
"Mini Pearl, Private 2 BR - 1 block to BEACH!",Entire apartment,Tybee Island,,Exceptional,5,0,0,31.9987321,-80.8469427,Georgia,United States,31328,us
Convenient Pensacola Home with Deck and Fire Pit!,Entire holiday home,Pensacola,9.3,Superb,3,0,0,30.421309,-87.2169149,Florida,United States,32503,us
Roan and Black,Entire holiday home,Saugatuck,8.5,Very good,2,0,0,42.6549244,-86.2040552,Michigan,United States,49453,us
so cozy LAZYBEARTIME private HOTTUB,Entire holiday home,Big Bear Lake,9.5,Exceptional,1,0,0,34.2440587,-116.91018,California,United States,92315,us
Rustic Hot tub Mountain house,Entire holiday home,Tallassee,8.5,Very good,4,0,0,32.5368152,-85.8987271,Alabama,United States,36078,us
PINTOs HOTEL,Entire apartment,Hallandale Beach,,Exceptional,3,0,0,25.9812025,-80.148379,Florida,United States,33009,us
Beach Colony of Perdido E02D,Entire apartment,Perdido Key,9.2,Superb,4,0,0,30.26751325,-87.59136205863628,Alabama,United States,36561,us
FRONTDESK Cedar Flats Apts Uptown Charlotte,Entire apartment,"Downtown Charlotte, Charlotte",8.5,Very good,2,0,0,45.1925779,-67.2776251,New Brunswick / Nouveau-Brunswick,Canada,E3L 1G4,ca
Atlanta Downtown! High Rise! Onsite Parking! LM1402,Entire apartment,"Downtown Atlanta, Atlanta",7.7,Good,2,0,0,33.7543408,-84.3870791,Georgia,United States,30303,us
"Newly Renovated 2BR Townhouse at Gulf Highlands - 5 Min Walk to the Beach, 11 Pools!",Entire holiday home,Panama City Beach,8.5,Very good,4,0,0,30.1765914,-85.805386,Florida,United States,32408,us
Village at Winnipesaukee 59 Treetop #432,Entire apartment,Laconia,9.0,Superb,3,0,0,43.5278546,-71.470351,New Hampshire,United States,03246,us
Highly Rated 2 Bedroom Condo With Private Patio & Reserved Parking,Entire apartment,"Greenway Plaza-Upper Kirby, Houston",9.5,Exceptional,3,0,0,29.7319011,-95.4298519,Texas,United States,77046,us
Tidewater Beach Resort VI,Entire apartment,Panama City Beach,7.5,Good,3,0,0,30.1765914,-85.805386,Florida,United States,32408,us
Kid-Friendly Townhouse Near Lake & Sports Complex,Entire apartment,Guntersville,9.7,Exceptional,3,0,0,34.3581474,-86.2947041,Alabama,United States,35976,us
Gulf Highlands 170 Gulf Highlands Blvd,Entire holiday home,Panama City Beach,7.0,Good,3,0,0,30.1765914,-85.805386,Florida,United States,32408,us
The Art Palace,Entire apartment,Philadelphia,8.4,Very good,3,0,0,39.9527237,-75.1635262,Pennsylvania,United States,19107,us
Cozy & Spacious Lake Town condo accommodates 6,Entire apartment,Panama City Beach,8.0,Very good,3,0,0,30.1765914,-85.805386,Florida,United States,32408,us
"Central Anchorage Condo, Walk to Town and Coast!",Entire apartment,"Downtown Anchorage, Anchorage",8.0,Very good,2,0,0,61.22290665,-149.883628575,Alaska,United States,99501,us
It's a Shore Thing,Entire apartment,St. Augustine,,Exceptional,4,0,0,29.8946952,-81.3145395,Florida,United States,32084,us
Falling Water Chalet Near Bike Trails!,Entire holiday home,Bella Vista,9.0,Superb,5,0,0,36.4678036,-94.2669727,Arkansas,United States,72715,us
Peace on Poppy Street,Entire holiday home,Boise,9.0,Superb,2,0,0,43.6166163,-116.200886,Idaho,United States,83720,us
"Viagem Superb 2BR With Parking, Patio near Shops",Entire apartment,Tampa,8.3,Very good,1,0,0,27.9477595,-82.458444,Florida,United States,,us
Hawaiian Paradise,Entire holiday home,Pahoa,7.0,Good,3,0,0,19.4967518,-154.9500722,Hawaii,United States,96778,us
Chateau at Canyon Lake,Entire vill,Canyon Lake,,Exceptional,4,0,0,33.6836539,-117.262615,California,United States,92587,us
Sunrise Suites Grand Bahama Suite #106,Entire apartment,Key West,8.6,Fabulous,2,0,0,24.5625566,-81.7724368,Florida,United States,33040,us
Luxury Apartments - Newark Int Airport - Evonify Stays,Entire apartment,Elizabeth,8.1,Very good,4,0,0,40.6639916,-74.2107006,New Jersey,United States,07201,us
Blue Door Duplex Renovated Parking and Designed,Entire apartment,Cutler Bay,,Exceptional,3,0,0,25.5783,-80.3377,Florida,United States,33189,us
"Comfy, Convenient Close to Rehoboth and Lewes!",Entire apartment,Rehoboth Beach,9.9,Exceptional,2,0,0,38.7164771,-75.0835107,Delaware,United States,19971,us
Lakeview Condo with Resort Pool 2 Miles to Golf!,Entire apartment,Pinehurst,8.5,Very good,4,0,0,30.1071543,-93.7746117,Texas,United States,77630,us
Islander Condominiums III,Entire apartment,Fort Walton Beach,8.6,Fabulous,4,0,0,30.4057552,-86.618842,Florida,United States,32548,us
Unit 22 - Treetop 2 Bedroom Villa,Entire holiday home,Four Seasons,9.0,Superb,3,330,0,38.1948332,-92.709765,Missouri,United States,65049,us
*New Cabin 5min From Parkway*Deer Hollow,Entire holiday home,Sevierville,7.4,Good,3,1785,0,35.8667112,-83.5620518,Tennessee,United States,37862,us
Show Low Home with Deck and Grill - 13 Mi to Hon-Dah!,Entire holiday home,Show Low,8.5,Very good,2,488,0,34.2542084,-110.029832,Arizona,United States,85901,us
Viagem Beautiful 2BR with Balcony,Entire apartment,Bradenton,7.2,Good,1,1116,247,27.4989278,-82.5748194,Florida,United States,34205,us
West Cleveland Up Apartment WE ALLOW PETS,Entire apartment,Cleveland,8.0,Very good,2,455,0,41.4996574,-81.6936772,Ohio,United States,44114,us
2 Bed 2 Bath Vacation home in Scottsdale,Entire holiday home,Scottsdale,8.7,Fabulous,2,526,0,33.4942189,-111.9260184,Arizona,United States,85251,us
Plantation Dunes III,Entire apartment,Gulf Shores,8.7,Fabulous,4,466,0,30.2711224,-87.6893826,Alabama,United States,36542,us
Joseph,Entire holiday home,Port Charlotte,8.1,Very good,2,773,0,26.982419999999998,-82.10688734598534,Florida,United States,33952,us
Surfside Beach Escape with Pool - Walk to Ocean!,Entire apartment,"Surfside Beach, Myrtle Beach",9.5,Exceptional,2,337,0,33.62016835,-78.97205492008857,South Carolina,United States,29575,us
Hilton Hideaway,Entire apartment,Fairbanks,9.0,Superb,4,416,0,64.837845,-147.716675,Alaska,United States,99703,us
StoneRidge Golf Condo with Pool Access and Mtn Views!,Entire apartment,Blanchard,8.2,Very good,2,392,0,40.5791636,-95.2217058,Iowa,United States,,us
2 Bedroom Renovated Townhouse in Downtown Savannah,Entire apartment,"Downtown Savannah, Savannah",8.4,Very good,3,1258,0,32.075281950000004,-81.0984566550849,Georgia,United States,31401,us
Sea Nymph,Entire apartment,"Boardwalk, Ocean City",7.1,Good,7,392,0,39.2679447,-74.586521,New Jersey,United States,08226,us
NEW Stylish & Cozy Unit near Folsom Lake,Entire vill,Orangevale,,Exceptional,2,2437,0,38.6840715,-121.21839903078865,California,United States,95662,us
Spacious&stylish 2bd apt with great location!,Entire apartment,"Philadelphia City Center, Philadelphia",8.0,Very good,3,416,0,39.9525541,-75.15202163851058,Pennsylvania,United States,19106,us
"2BED/1 BATH SPACIOUS APT BOARDWALK, BEACH, CASINOS",Entire apartment,Atlantic City,8.3,Very good,1,694,0,39.3642852,-74.4229351,New Jersey,United States,08402,us
Ocean Reef,Entire apartment,Gulf Shores,7.1,Good,3,416,0,30.2711224,-87.6893826,Alabama,United States,36542,us
Buena Vista Cottage,Entire holiday home,Miami,8.2,Very good,3,769,0,25.7741728,-80.19362,Florida,United States,33128,us
